{
"type": "FeatureCollection",
                                                                                
"features": [
{ "type": "Feature", "id": 0, "properties": { "FAX": null, "Nome": "NON ATTRIBUITO", "Indirizzo": "VIA USSI STEFANO   4", "Zona": 9, "info": "CENTRO SPORTIVO", "URL": null, "TELEFONO1": null }, "geometry": { "type": "Point", "coordinates": [ 9.208355790398564, 45.507101546640804 ] } }
,
{ "type": "Feature", "id": 1, "properties": { "FAX": null, "Nome": "S.S. BAGGIO 2", "Indirizzo": "VIA OLIVIERI ALESSIO   11", "Zona": 7, "info": "CALCIO A 11", "URL": null, "TELEFONO1": "024599310" }, "geometry": { "type": "Point", "coordinates": [ 9.111564094638219, 45.465571493173634 ] } }
,
{ "type": "Feature", "id": 2, "properties": { "FAX": "0239210739", "Nome": "LIDO DI MILANO", "Indirizzo": "PLE LOTTO LORENZO   15", "Zona": 8, "info": "MINI GOLF", "URL": "www.milanosport.it", "TELEFONO1": "0239266100" }, "geometry": { "type": "Point", "coordinates": [ 9.141940215210047, 45.480563925230378 ] } }
,
{ "type": "Feature", "id": 3, "properties": { "FAX": null, "Nome": "COOP. AGRISPORT SEZIONE CALCIO", "Indirizzo": "VIA DEL RICORDO   58", "Zona": 2, "info": "CENTRO SPORTIVO", "URL": null, "TELEFONO1": "0227207742" }, "geometry": { "type": "Point", "coordinates": [ 9.237940277248566, 45.50931993872058 ] } }
,
{ "type": "Feature", "id": 4, "properties": { "FAX": null, "Nome": "SOCIETA GINNASTICA MILANO 2000", "Indirizzo": "VIA MARTIGNONI ADELE   1  A", "Zona": 2, "info": "CENTRO SPORTIVO", "URL": null, "TELEFONO1": "02603288" }, "geometry": { "type": "Point", "coordinates": [ 9.196138353610289, 45.492566238849804 ] } }
,
{ "type": "Feature", "id": 5, "properties": { "FAX": null, "Nome": "PRO PATRIA MILANO S.R.L.", "Indirizzo": "VLE SARCA   205", "Zona": 9, "info": "ATLETICA", "URL": null, "TELEFONO1": "026437519" }, "geometry": { "type": "Point", "coordinates": [ 9.21025411732022, 45.518797359385083 ] } }
,
{ "type": "Feature", "id": 6, "properties": { "FAX": null, "Nome": "A.S.D. ATLETICO MILANO", "Indirizzo": "VIA DEI CICLAMINI   18", "Zona": 6, "info": "CENTRO SPORTIVO", "URL": null, "TELEFONO1": "024120207" }, "geometry": { "type": "Point", "coordinates": [ 9.127652140184306, 45.455603688954447 ] } }
,
{ "type": "Feature", "id": 7, "properties": { "FAX": null, "Nome": "NON ATTRIBUITO", "Indirizzo": "VIA DEGLI ANEMONI   8", "Zona": 6, "info": "CENTRO SPORTIVO", "URL": null, "TELEFONO1": "0288456074" }, "geometry": { "type": "Point", "coordinates": [ 9.13050541678796, 45.455718773689959 ] } }
,
{ "type": "Feature", "id": 8, "properties": { "FAX": "025468795", "Nome": "A.S. CALVAIRATE", "Indirizzo": "VIA VISMARA GASPARE   3", "Zona": 4, "info": "CALCIO A 11", "URL": "www.ascalvairate.com", "TELEFONO1": "025462083" }, "geometry": { "type": "Point", "coordinates": [ 9.228964243918377, 45.454172479201517 ] } }
,
{ "type": "Feature", "id": 9, "properties": { "FAX": null, "Nome": "TENNIS CLUB AMBROSIANO", "Indirizzo": "VIA FELTRE   33", "Zona": 3, "info": "CENTRO SPORTIVO", "URL": null, "TELEFONO1": "0226414392" }, "geometry": { "type": "Point", "coordinates": [ 9.242620051297044, 45.4914003283859 ] } }
,
{ "type": "Feature", "id": 10, "properties": { "FAX": null, "Nome": "G.S. LOMBARDINA", "Indirizzo": "VIA SBARBARO CAMILLO   1", "Zona": 9, "info": "CALCIO A 11", "URL": null, "TELEFONO1": "026469651" }, "geometry": { "type": "Point", "coordinates": [ 9.179248189143145, 45.516695305142093 ] } }
,
{ "type": "Feature", "id": 11, "properties": { "FAX": null, "Nome": "S.S. SCARIONI 1925", "Indirizzo": "VIA TUCIDIDE   10", "Zona": 3, "info": "CALCIO A 11", "URL": null, "TELEFONO1": "0270102158" }, "geometry": { "type": "Point", "coordinates": [ 9.243255652374895, 45.469432331847564 ] } }
,
{ "type": "Feature", "id": 12, "properties": { "FAX": "0248929182", "Nome": "MILANO SPORT SPA", "Indirizzo": "VIA ARIOLI VENEGONI   9", "Zona": 7, "info": "PISCINA", "URL": "www.milanosport.it", "TELEFONO1": "024566316" }, "geometry": { "type": "Point", "coordinates": [ 9.11094953262797, 45.468109692989437 ] } }
,
{ "type": "Feature", "id": 13, "properties": { "FAX": "0248376073", "Nome": "MILANO SPORT SPA", "Indirizzo": "VIA DEL CARDELLINO   3", "Zona": 6, "info": "NUOTO", "URL": "www.milanosport.it", "TELEFONO1": "02417948" }, "geometry": { "type": "Point", "coordinates": [ 9.123726368574806, 45.448274461352824 ] } }
,
{ "type": "Feature", "id": 14, "properties": { "FAX": null, "Nome": "CONI FIS CIRCOLO SPADA  MANGIAROTTI", "Indirizzo": "VLE TUNISIA   35", "Zona": 2, "info": "PALESTRA", "URL": null, "TELEFONO1": "026590166" }, "geometry": { "type": "Point", "coordinates": [ 9.201282289864418, 45.479039845858665 ] } }
,
{ "type": "Feature", "id": 15, "properties": { "FAX": "0269540375", "Nome": "MILANO SPORT SPA", "Indirizzo": "VIA SANT' ABBONDIO   12", "Zona": 5, "info": "PISCINA", "URL": "www.milanosport.it", "TELEFONO1": "028466861" }, "geometry": { "type": "Point", "coordinates": [ 9.173163702366782, 45.425120077237409 ] } }
,
{ "type": "Feature", "id": 16, "properties": { "FAX": "0243983187", "Nome": "MILANO SPORT SPA", "Indirizzo": "VIA MONTEVIDEO   11", "Zona": 6, "info": "NUOTO", "URL": "www.miltanosport.it", "TELEFONO1": "024695278" }, "geometry": { "type": "Point", "coordinates": [ 9.165230072069473, 45.458404937002499 ] } }
,
{ "type": "Feature", "id": 17, "properties": { "FAX": null, "Nome": "COOPERATIVA DRIMS", "Indirizzo": "VIA MECENATE   74", "Zona": 4, "info": "CENTRO SPORTIVO", "URL": null, "TELEFONO1": "025061277" }, "geometry": { "type": "Point", "coordinates": [ 9.246586992138516, 45.453694319121858 ] } }
,
{ "type": "Feature", "id": 18, "properties": { "FAX": "0289306784", "Nome": "LUIGI CARRARO", "Indirizzo": "VIA DEI MISSAGLIA   146", "Zona": 5, "info": "CENTRO SPORTIVO", "URL": "www.milanosport.it", "TELEFONO1": "028266540" }, "geometry": { "type": "Point", "coordinates": [ 9.173318230439978, 45.401723528498259 ] } }
,
{ "type": "Feature", "id": 19, "properties": { "FAX": null, "Nome": "GIANNI BRERA", "Indirizzo": "VLE BYRON GIORGIO   2", "Zona": 1, "info": "CENTRO SPORTIVO", "URL": "www.comune.milano.it", "TELEFONO1": "02341924" }, "geometry": { "type": "Point", "coordinates": [ 9.178346148501074, 45.475338830352939 ] } }
,
{ "type": "Feature", "id": 20, "properties": { "FAX": null, "Nome": "EMILIO COLOMBO", "Indirizzo": "VIA DEL CARDELLINO   15", "Zona": 6, "info": "CENTRO SPORTIVO", "URL": null, "TELEFONO1": "02410976" }, "geometry": { "type": "Point", "coordinates": [ 9.122354458785946, 45.450320378663278 ] } }
,
{ "type": "Feature", "id": 21, "properties": { "FAX": null, "Nome": "U.S. VISCONTINI", "Indirizzo": "VIA GIORGI FERDINANDO   10", "Zona": 8, "info": "CENTRO SPORTIVO", "URL": null, "TELEFONO1": "024526610" }, "geometry": { "type": "Point", "coordinates": [ 9.102470697827284, 45.490179828686777 ] } }
,
{ "type": "Feature", "id": 22, "properties": { "FAX": "0233494959", "Nome": "MARCO CAPPELLI - GIUSEPPE SFORZA", "Indirizzo": "VIA LAMPUGNANO   80", "Zona": 8, "info": "CENTRO SPORTIVO", "URL": "www.milanosport.it", "TELEFONO1": "0238004525" }, "geometry": { "type": "Point", "coordinates": [ 9.113682366910721, 45.490860043142803 ] } }
,
{ "type": "Feature", "id": 23, "properties": { "FAX": "0240918173", "Nome": "MILANO SPORT SPA", "Indirizzo": "VIA LAMENNAIS F.R.   20", "Zona": 7, "info": "PISCINA", "URL": "www.milanosport.it", "TELEFONO1": "024526095" }, "geometry": { "type": "Point", "coordinates": [ 9.113112156967166, 45.473712598328781 ] } }
,
{ "type": "Feature", "id": 24, "properties": { "FAX": "023762283", "Nome": "GIORDANO MASSOLA", "Indirizzo": "VIA DON MINZONI GIOVANNI   4", "Zona": 9, "info": "CENTRO SPORTIVO", "URL": "www.acgaribaldina1932.net", "TELEFONO1": "023762283" }, "geometry": { "type": "Point", "coordinates": [ 9.1693414563461, 45.504871947622178 ] } }
,
{ "type": "Feature", "id": 25, "properties": { "FAX": null, "Nome": "A.S. IDEA SPORT PALLACANESTRO", "Indirizzo": "VIA BRIVIO   1", "Zona": 8, "info": "CENTRO SPORTIVO", "URL": null, "TELEFONO1": "0233403435" }, "geometry": { "type": "Point", "coordinates": [ 9.143415205436481, 45.502807862873816 ] } }
,
{ "type": "Feature", "id": 26, "properties": { "FAX": "0239262162", "Nome": "XXV APRILE", "Indirizzo": "VIA CIMABUE GIOVANNI   24", "Zona": 8, "info": "ATLETICA", "URL": "www.milanosport.it", "TELEFONO1": "0239210769" }, "geometry": { "type": "Point", "coordinates": [ 9.138502959568923, 45.488744309923803 ] } }
,
{ "type": "Feature", "id": 27, "properties": { "FAX": "0270200295", "Nome": "MARIO SAINI", "Indirizzo": "VIA CORELLI ARCANGELO   136", "Zona": 3, "info": "CENTRO SPORTIVO", "URL": "www.milanosport.it", "TELEFONO1": "027561280" }, "geometry": { "type": "Point", "coordinates": [ 9.263405031896065, 45.469967693660244 ] } }
,
{ "type": "Feature", "id": 28, "properties": { "FAX": "0256810426", "Nome": "MILANO SPORT SPA", "Indirizzo": "VIA MINCIO   13", "Zona": 4, "info": "PISCINA", "URL": "www.milanosport.it", "TELEFONO1": "02538416" }, "geometry": { "type": "Point", "coordinates": [ 9.21611561246351, 45.440061297675314 ] } }
,
{ "type": "Feature", "id": 29, "properties": { "FAX": "0248713719", "Nome": "GIUSEPPE MEAZZA", "Indirizzo": "VIA DEI PICCOLOMINI 5", "Zona": 7, "info": "CENTRO SPORTIVO", "URL": "www.sansiro.net", "TELEFONO1": "0248713713" }, "geometry": { "type": "Point", "coordinates": [ 9.12538082340806, 45.478511997257961 ] } }
,
{ "type": "Feature", "id": 30, "properties": { "FAX": null, "Nome": "CAMERONI", "Indirizzo": "VIA BECHI GIULIO   2", "Zona": 2, "info": "CENTRO SPORTIVO", "URL": "www.crespimorbio.it", "TELEFONO1": "022576740" }, "geometry": { "type": "Point", "coordinates": [ 9.222333865549816, 45.507077126743305 ] } }
,
{ "type": "Feature", "id": 31, "properties": { "FAX": null, "Nome": "S.S. SAVORELLI 1937", "Indirizzo": "PZA CADUTI DEL LAVORO   5", "Zona": 5, "info": "CENTRO SPORTIVO", "URL": null, "TELEFONO1": "0289511889" }, "geometry": { "type": "Point", "coordinates": [ 9.1856810431703, 45.443580233594517 ] } }
,
{ "type": "Feature", "id": 32, "properties": { "FAX": null, "Nome": "A.C. ALDINIANA", "Indirizzo": "VIA GRAF ARTURO   4", "Zona": 8, "info": "CENTRO SPORTIVO", "URL": null, "TELEFONO1": "023574408" }, "geometry": { "type": "Point", "coordinates": [ 9.138900361438999, 45.512681166065732 ] } }
,
{ "type": "Feature", "id": 33, "properties": { "FAX": null, "Nome": "U.S. ALDINI - BARIVIERA", "Indirizzo": "VIA ORSINI FELICE   84", "Zona": 8, "info": "CALCIO A 5", "URL": null, "TELEFONO1": "023557909" }, "geometry": { "type": "Point", "coordinates": [ 9.126858948012631, 45.517415032935119 ] } }
,
{ "type": "Feature", "id": 34, "properties": { "FAX": null, "Nome": "F.C. ENOTRIA 1908", "Indirizzo": "VIA CAZZANIGA CARLO   26", "Zona": 3, "info": "CALCIO A 11", "URL": null, "TELEFONO1": "022566673" }, "geometry": { "type": "Point", "coordinates": [ 9.252262922194829, 45.502862340601617 ] } }
,
{ "type": "Feature", "id": 35, "properties": { "FAX": null, "Nome": "FEDERAZIONE BRIDGE", "Indirizzo": "VIA WASHINGTON GIORGIO   33", "Zona": 7, "info": "CENTRO SPORTIVO", "URL": null, "TELEFONO1": "024691424" }, "geometry": { "type": "Point", "coordinates": [ 9.155222052958916, 45.462615009244232 ] } }
,
{ "type": "Feature", "id": 36, "properties": { "FAX": null, "Nome": "CANOTTIERI MILANO", "Indirizzo": "ALZ NAVIGLIO GRANDE   160", "Zona": 6, "info": "CENTRO SPORTIVO", "URL": null, "TELEFONO1": "0248951211" }, "geometry": { "type": "Point", "coordinates": [ 9.148845276591368, 45.446471682610813 ] } }
,
{ "type": "Feature", "id": 37, "properties": { "FAX": null, "Nome": "U.S. DINDELLI", "Indirizzo": "VIA TREVIGLIO   6", "Zona": 2, "info": "CALCIO A 11", "URL": null, "TELEFONO1": "022552386" }, "geometry": { "type": "Point", "coordinates": [ 9.235247124226339, 45.508736270508415 ] } }
,
{ "type": "Feature", "id": 38, "properties": { "FAX": null, "Nome": "CARASSAI", "Indirizzo": "VIA SANT' ABBONDIO   4", "Zona": 5, "info": "CALCIO A 11", "URL": "www.fcvigejunior.it", "TELEFONO1": "0289500644" }, "geometry": { "type": "Point", "coordinates": [ 9.171166823377495, 45.424470088464744 ] } }
,
{ "type": "Feature", "id": 39, "properties": { "FAX": null, "Nome": "S.S. IRIS 1914", "Indirizzo": "VIA FARADAY MICHELE   15", "Zona": 6, "info": "CENTRO SPORTIVO", "URL": null, "TELEFONO1": "0289121876" }, "geometry": { "type": "Point", "coordinates": [ 9.144917073006834, 45.444347073319115 ] } }
,
{ "type": "Feature", "id": 40, "properties": { "FAX": null, "Nome": "COM. PROVINCIALE MOVIMENTO SPORT AZZURRO ITALIA", "Indirizzo": "VIA PARENZO   2  A", "Zona": 6, "info": "CENTRO SPORTIVO", "URL": "www.centrosportivoparenzo.it", "TELEFONO1": "028910351" }, "geometry": { "type": "Point", "coordinates": [ 9.13870699332073, 45.442550071331965 ] } }
,
{ "type": "Feature", "id": 41, "properties": { "FAX": null, "Nome": "COOP. SPORTIVA VALLA", "Indirizzo": "VIA VALLA LORENZO   1", "Zona": 5, "info": "TENNIS", "URL": null, "TELEFONO1": "028465872" }, "geometry": { "type": "Point", "coordinates": [ 9.187134140461494, 45.434739075335457 ] } }
,
{ "type": "Feature", "id": 42, "properties": { "FAX": null, "Nome": "A.S. TENNIS CLUB ANEMONI", "Indirizzo": "VIA PONTI GIO'   3", "Zona": 6, "info": "CENTRO SPORTIVO", "URL": null, "TELEFONO1": "024123436" }, "geometry": { "type": "Point", "coordinates": [ 9.132895165649666, 45.45757607115182 ] } }
,
{ "type": "Feature", "id": 43, "properties": { "FAX": null, "Nome": "TC PORTA ROMANA", "Indirizzo": "VIA SABINA   9", "Zona": 4, "info": "TENNIS", "URL": null, "TELEFONO1": "0288456084" }, "geometry": { "type": "Point", "coordinates": [ 9.205986277, 45.453674386840156 ] } }
,
{ "type": "Feature", "id": 44, "properties": { "FAX": null, "Nome": "A.S. JUNIOR TENNIS DARIO MATTEI GENTILI", "Indirizzo": "VIA CAVRIANA   45", "Zona": 4, "info": "CENTRO SPORTIVO", "URL": null, "TELEFONO1": "027388222" }, "geometry": { "type": "Point", "coordinates": [ 9.239932916855453, 45.467810912922204 ] } }
,
{ "type": "Feature", "id": 45, "properties": { "FAX": null, "Nome": "POLISPORTIVA LE LUMACHE", "Indirizzo": "VIA BARI   20", "Zona": 6, "info": "CENTRO SPORTIVO", "URL": null, "TELEFONO1": "0288454398" }, "geometry": { "type": "Point", "coordinates": [ 9.148713991157432, 45.438833835639286 ] } }
,
{ "type": "Feature", "id": 46, "properties": { "FAX": null, "Nome": "ASS.  POL.  ACCADEMIA INTERNAZIONALE CALCIO", "Indirizzo": "VIA CILEA FRANCESCO   51", "Zona": 8, "info": "CENTRO SPORTIVO", "URL": null, "TELEFONO1": "023539101" }, "geometry": { "type": "Point", "coordinates": [ 9.104277409173877, 45.495173516339243 ] } }
,
{ "type": "Feature", "id": 47, "properties": { "FAX": null, "Nome": "A.S. UNIONE LOMBARDA", "Indirizzo": "VIA PONTI GIO'   1", "Zona": 6, "info": "CENTRO SPORTIVO", "URL": null, "TELEFONO1": "024152169" }, "geometry": { "type": "Point", "coordinates": [ 9.133385087059596, 45.457703595249043 ] } }
,
{ "type": "Feature", "id": 48, "properties": { "FAX": null, "Nome": "COOP. AICS OLMI", "Indirizzo": "VIA MOSCA ANTONIO   67", "Zona": 7, "info": "CENTRO SPORTIVO", "URL": null, "TELEFONO1": "024564802" }, "geometry": { "type": "Point", "coordinates": [ 9.081510043891134, 45.455956172727113 ] } }
,
{ "type": "Feature", "id": 49, "properties": { "FAX": null, "Nome": "ROGOREDO 84 A.S.D.", "Indirizzo": "VIA PIZZOLPASSO FRANCESCO  25", "Zona": 4, "info": "CENTRO SPORTIVO", "URL": "www.rogoredo84.it", "TELEFONO1": "0255700188" }, "geometry": { "type": "Point", "coordinates": [ 9.245992566966393, 45.432571496569494 ] } }
,
{ "type": "Feature", "id": 50, "properties": { "FAX": null, "Nome": "A.S. BARONA", "Indirizzo": "VIA SAN PAOLINO   9", "Zona": 6, "info": "CENTRO SPORTIVO", "URL": null, "TELEFONO1": "028435661" }, "geometry": { "type": "Point", "coordinates": [ 9.1651297921631, 45.432640983137667 ] } }
,
{ "type": "Feature", "id": 51, "properties": { "FAX": null, "Nome": "AS MOJAZZA", "Indirizzo": "VIA PRAMPOLINI CAMILLO   3", "Zona": 9, "info": "GINNASTICA", "URL": "www.asmojazza.org", "TELEFONO1": "340786269" }, "geometry": { "type": "Point", "coordinates": [ 9.180406862311946, 45.498686383025294 ] } }
,
{ "type": "Feature", "id": 52, "properties": { "FAX": null, "Nome": "FEDERAZIONE ITALIANA GIOCO CALCIO", "Indirizzo": "VIA LAGO DI NEMI   29", "Zona": 6, "info": "CENTRO SPORTIVO", "URL": "www.centrosportivobettinelli.it", "TELEFONO1": "0236530766" }, "geometry": { "type": "Point", "coordinates": [ 9.14898813767452, 45.435268373198795 ] } }
,
{ "type": "Feature", "id": 53, "properties": { "FAX": null, "Nome": "TENNIS SQUASH MEDIOLANUM", "Indirizzo": "VIA MONTI VINCENZO   57 A", "Zona": 1, "info": "CALCIO A 5", "URL": null, "TELEFONO1": "024690405" }, "geometry": { "type": "Point", "coordinates": [ 9.166035142157192, 45.473097352346876 ] } }
,
{ "type": "Feature", "id": 54, "properties": { "FAX": null, "Nome": "CIRCOLO BOCCIOFILO CACCIALANZA PIETRO", "Indirizzo": "VIA PADOVA   91", "Zona": 2, "info": "BOCCIODROMO", "URL": null, "TELEFONO1": "022826059" }, "geometry": { "type": "Point", "coordinates": [ 9.228301961489885, 45.495197906309009 ] } }
,
{ "type": "Feature", "id": 55, "properties": { "FAX": "0266118268", "Nome": "MILANO SPORT SPA", "Indirizzo": "VIA BECCALI LUIGI   7", "Zona": 9, "info": "PISCINA", "URL": "www.milanosport.it", "TELEFONO1": "0266103113" }, "geometry": { "type": "Point", "coordinates": [ 9.206135922242499, 45.519667079646879 ] } }
,
{ "type": "Feature", "id": 56, "properties": { "FAX": null, "Nome": "FIN FEDERAZIONE ITALIANA NUOTO LAMPUGNANO", "Indirizzo": "VIA LAMPUGNANO   76", "Zona": 8, "info": "PISCINA", "URL": null, "TELEFONO1": "023088390" }, "geometry": { "type": "Point", "coordinates": [ 9.115137316757961, 45.490690658881469 ] } }
,
{ "type": "Feature", "id": 57, "properties": { "FAX": null, "Nome": "CENTRO BALNEARE GIUSEPPE CAIMI", "Indirizzo": "VIA BOTTA CARLO   18", "Zona": 4, "info": "NUOTO", "URL": "www.milanosport.it", "TELEFONO1": null }, "geometry": { "type": "Point", "coordinates": [ 9.204920667485002, 45.453715157857161 ] } }
,
{ "type": "Feature", "id": 58, "properties": { "FAX": null, "Nome": "FRANCO SCARIONI", "Indirizzo": "VIA VALFURVA   9", "Zona": 9, "info": "CENTRO BALNEARE", "URL": "www.milanosport.it", "TELEFONO1": "026424236" }, "geometry": { "type": "Point", "coordinates": [ 9.195636967712868, 45.509590297383241 ] } }
,
{ "type": "Feature", "id": 59, "properties": { "FAX": null, "Nome": "COMASINA A.S.D.", "Indirizzo": "VIA SALEMI   19", "Zona": 9, "info": "CALCIO A 11", "URL": null, "TELEFONO1": "0266202505" }, "geometry": { "type": "Point", "coordinates": [ 9.158403865842217, 45.525956758371628 ] } }
,
{ "type": "Feature", "id": 60, "properties": { "FAX": null, "Nome": "A.C. BRUZZANO", "Indirizzo": "VIA COMASINA   115", "Zona": 9, "info": "CALCIO A 11", "URL": null, "TELEFONO1": "026458357" }, "geometry": { "type": "Point", "coordinates": [ 9.16203778757634, 45.530875374001212 ] } }
,
{ "type": "Feature", "id": 61, "properties": { "FAX": null, "Nome": "A.S. TENNIS CLUB LOMBARDO", "Indirizzo": "VIA SISMONDI GIANCARLO   8", "Zona": 4, "info": "CALCIO A 5", "URL": null, "TELEFONO1": "0270123145" }, "geometry": { "type": "Point", "coordinates": [ 9.225070111190851, 45.465468182750271 ] } }
,
{ "type": "Feature", "id": 62, "properties": { "FAX": null, "Nome": "NUOVA CANOTTIERI OLONA", "Indirizzo": "ALZ NAVIGLIO GRANDE   146", "Zona": 6, "info": "CENTRO SPORTIVO", "URL": null, "TELEFONO1": "0248951494" }, "geometry": { "type": "Point", "coordinates": [ 9.153316737033643, 45.447457355225438 ] } }
,
{ "type": "Feature", "id": 63, "properties": { "FAX": null, "Nome": "POLITECNICO DI MILANO - CS MARIO GIURIATI", "Indirizzo": "VIA CARLO PASCAL 6", "Zona": 3, "info": "CENTRO SPORTIVO", "URL": null, "TELEFONO1": "0270600358" }, "geometry": { "type": "Point", "coordinates": [ 9.232811100919031, 45.478408898681153 ] } }
,
{ "type": "Feature", "id": 64, "properties": { "FAX": null, "Nome": "MARIA REGINA PACIS", "Indirizzo": "VIA KANT EMANUELE   8", "Zona": 8, "info": "CALCIO A 11", "URL": null, "TELEFONO1": "0288456074" }, "geometry": { "type": "Point", "coordinates": [ 9.117579067951175, 45.496002607218522 ] } }
,
{ "type": "Feature", "id": 65, "properties": { "FAX": null, "Nome": "SANTA BARBARA IN GRATOSOGLIO", "Indirizzo": "VIA FERABOLI ACHILLE   27", "Zona": 5, "info": "CENTRO SPORTIVO", "URL": null, "TELEFONO1": "0288454398" }, "geometry": { "type": "Point", "coordinates": [ 9.171618114873267, 45.414454526110667 ] } }
,
{ "type": "Feature", "id": 66, "properties": { "FAX": null, "Nome": "SANTA MARIA ASSUNTA IN QUINTOSOLE", "Indirizzo": "VIA QUINTOSOLE 40", "Zona": 5, "info": "CENTRO SPORTIVO", "URL": null, "TELEFONO1": null }, "geometry": { "type": "Point", "coordinates": [ 9.203571650606021, 45.401983460853252 ] } }
,
{ "type": "Feature", "id": 67, "properties": { "FAX": null, "Nome": "SANTA MARIA MADRE DELLA CHIESA", "Indirizzo": "VIA SAPONARO MICHELE   28", "Zona": 5, "info": "CENTRO SPORTIVO", "URL": null, "TELEFONO1": null }, "geometry": { "type": "Point", "coordinates": [ 9.17228520083188, 45.407106001124902 ] } }
,
{ "type": "Feature", "id": 68, "properties": { "FAX": null, "Nome": "SAN GIOVANNI BONO", "Indirizzo": "VIA SAN PAOLINO   20", "Zona": 6, "info": "PALLACANESTRO", "URL": null, "TELEFONO1": null }, "geometry": { "type": "Point", "coordinates": [ 9.162085441534666, 45.43049141364996 ] } }
,
{ "type": "Feature", "id": 69, "properties": { "FAX": null, "Nome": "SACRA FAMIGLIA IN ROGOREDO", "Indirizzo": "VIA MONTE PARALBA   15", "Zona": 4, "info": "CENTRO SPORTIVO", "URL": null, "TELEFONO1": null }, "geometry": { "type": "Point", "coordinates": [ 9.243407008787841, 45.432323845740683 ] } }
,
{ "type": "Feature", "id": 70, "properties": { "FAX": null, "Nome": "SANTA MARIA LIBERATRICE", "Indirizzo": "VIA SOLAROLI PAOLO   11", "Zona": 5, "info": "CALCIO A 11", "URL": null, "TELEFONO1": null }, "geometry": { "type": "Point", "coordinates": [ 9.198525169264888, 45.43662707025517 ] } }
,
{ "type": "Feature", "id": 71, "properties": { "FAX": null, "Nome": "SAN MICHELE ARCANGELO E SANTA RITA", "Indirizzo": "VIA DEI CINQUECENTO   1", "Zona": 4, "info": "CENTRO SPORTIVO", "URL": "www.smsr.it", "TELEFONO1": null }, "geometry": { "type": "Point", "coordinates": [ 9.222994591574958, 45.436643659253093 ] } }
,
{ "type": "Feature", "id": 72, "properties": { "FAX": null, "Nome": "OGNISANTI", "Indirizzo": "VIA BESSARIONE   25", "Zona": 4, "info": "CENTRO SPORTIVO", "URL": null, "TELEFONO1": null }, "geometry": { "type": "Point", "coordinates": [ 9.216712785634128, 45.438333818231271 ] } }
,
{ "type": "Feature", "id": 73, "properties": { "FAX": null, "Nome": "SAN GREGORIO BARBARIGO", "Indirizzo": "VIA BORDIGHERA   46", "Zona": 5, "info": "CENTRO SPORTIVO", "URL": null, "TELEFONO1": null }, "geometry": { "type": "Point", "coordinates": [ 9.173489044368399, 45.438527953156743 ] } }
,
{ "type": "Feature", "id": 74, "properties": { "FAX": null, "Nome": "SANTI QUATTRO EVANGELISTI", "Indirizzo": "VIA PEZZOTTI GIOVANNI   53", "Zona": 5, "info": "CENTRO SPORTIVO", "URL": "www.4evangelisti.net", "TELEFONO1": null }, "geometry": { "type": "Point", "coordinates": [ 9.183653346340826, 45.439503316947011 ] } }
,
{ "type": "Feature", "id": 75, "properties": { "FAX": null, "Nome": "SAN SILVESTRO", "Indirizzo": "VIA LODOVICO IL MORO   171", "Zona": 6, "info": "CENTRO SPORTIVO", "URL": null, "TELEFONO1": null }, "geometry": { "type": "Point", "coordinates": [ 9.1277610694756, 45.440253017972992 ] } }
,
{ "type": "Feature", "id": 76, "properties": { "FAX": null, "Nome": "SANTI NAZARO E CELSO", "Indirizzo": "VIA ZUMBINI BONAVENTURA   19", "Zona": 6, "info": "CENTRO SPORTIVO", "URL": "www.parrocchiabarona.it", "TELEFONO1": null }, "geometry": { "type": "Point", "coordinates": [ 9.159468410290527, 45.441414932291295 ] } }
,
{ "type": "Feature", "id": 77, "properties": { "FAX": null, "Nome": "MADONNA DELLA MEDAGLIA MIRACOLOSA", "Indirizzo": "VIA F.LLI ROSSELLI   6", "Zona": 4, "info": "CENTRO SPORTIVO", "URL": null, "TELEFONO1": null }, "geometry": { "type": "Point", "coordinates": [ 9.22524902763344, 45.44236431395764 ] } }
,
{ "type": "Feature", "id": 78, "properties": { "FAX": null, "Nome": "SANTA MARIA DI CARAVAGGIO", "Indirizzo": "VIA BRIOSCHI FRANCESCO   38", "Zona": 5, "info": "CENTRO SPORTIVO", "URL": null, "TELEFONO1": null }, "geometry": { "type": "Point", "coordinates": [ 9.180809723208524, 45.444455555685643 ] } }
,
{ "type": "Feature", "id": 79, "properties": { "FAX": null, "Nome": "SAN LUIGI GONZAGA", "Indirizzo": "VIA TAGLIAMENTO   10", "Zona": 4, "info": "CENTRO SPORTIVO", "URL": null, "TELEFONO1": null }, "geometry": { "type": "Point", "coordinates": [ 9.213329468961288, 45.443665294028705 ] } }
,
{ "type": "Feature", "id": 80, "properties": { "FAX": null, "Nome": "BEATAVERGINE ADDOLORATA", "Indirizzo": "VLE UNGHERIA   32", "Zona": 4, "info": "CENTRO SPORTIVO", "URL": null, "TELEFONO1": null }, "geometry": { "type": "Point", "coordinates": [ 9.249450710185743, 45.445817882883077 ] } }
,
{ "type": "Feature", "id": 81, "properties": { "FAX": null, "Nome": "SAN CIPRIANO", "Indirizzo": "VIA D'ADDA CARLO   31", "Zona": 6, "info": "PALLACANESTRO", "URL": null, "TELEFONO1": null }, "geometry": { "type": "Point", "coordinates": [ 9.161982537806301, 45.445516423397315 ] } }
,
{ "type": "Feature", "id": 82, "properties": { "FAX": null, "Nome": "SAN CURATO D'ARS", "Indirizzo": "LGO GIAMBELLINO   127", "Zona": 6, "info": "CENTRO SPORTIVO", "URL": null, "TELEFONO1": null }, "geometry": { "type": "Point", "coordinates": [ 9.136229204798196, 45.4464692784099 ] } }
,
{ "type": "Feature", "id": 83, "properties": { "FAX": null, "Nome": "SANT'ANDREA", "Indirizzo": "VIA CREMA   24", "Zona": 5, "info": "CENTRO SPORTIVO", "URL": null, "TELEFONO1": null }, "geometry": { "type": "Point", "coordinates": [ 9.202422748471582, 45.448175699536435 ] } }
,
{ "type": "Feature", "id": 84, "properties": { "FAX": null, "Nome": "BEATA VERGINE IMMACOLATA E SANT'ANTONIO", "Indirizzo": "VLE CORSICA   68", "Zona": 4, "info": "CENTRO SPORTIVO", "URL": null, "TELEFONO1": null }, "geometry": { "type": "Point", "coordinates": [ 9.231692223375159, 45.461938559212534 ] } }
,
{ "type": "Feature", "id": 85, "properties": { "FAX": null, "Nome": "PREZIOSISSIMO SANGUE DI N.S.G.C.", "Indirizzo": "VIA CIPRO   10", "Zona": 4, "info": "CENTRO SPORTIVO", "URL": null, "TELEFONO1": null }, "geometry": { "type": "Point", "coordinates": [ 9.222033128264631, 45.461515413018908 ] } }
,
{ "type": "Feature", "id": 86, "properties": { "FAX": null, "Nome": "MADONNA DEI POVERI", "Indirizzo": "PZA MADONNA DEI POVERI   1", "Zona": 7, "info": "TENNIS", "URL": null, "TELEFONO1": null }, "geometry": { "type": "Point", "coordinates": [ 9.112599900403621, 45.4621108647044 ] } }
,
{ "type": "Feature", "id": 87, "properties": { "FAX": null, "Nome": "GESU' BUON PASTORE E S. MATTEO", "Indirizzo": "VIA CABOTO SEBASTIANO   2", "Zona": 7, "info": "CENTRO SPORTIVO", "URL": null, "TELEFONO1": null }, "geometry": { "type": "Point", "coordinates": [ 9.156246054342326, 45.462162025713397 ] } }
,
{ "type": "Feature", "id": 88, "properties": { "FAX": null, "Nome": "SAN VITTORE AL CORPO", "Indirizzo": "VIA DEGLI OLIVETANI   3", "Zona": 1, "info": "CENTRO SPORTIVO", "URL": null, "TELEFONO1": null }, "geometry": { "type": "Point", "coordinates": [ 9.16933724368314, 45.462328351258932 ] } }
,
{ "type": "Feature", "id": 89, "properties": { "FAX": null, "Nome": "SANTA MARIA DEL SUFFRAGIO", "Indirizzo": "VIA BONVESIN DE LA RIVA   2", "Zona": 4, "info": "CENTRO SPORTIVO", "URL": null, "TELEFONO1": null }, "geometry": { "type": "Point", "coordinates": [ 9.212193608448464, 45.463164289082087 ] } }
,
{ "type": "Feature", "id": 90, "properties": { "FAX": null, "Nome": "SANTI MM. NABORE E FELICE", "Indirizzo": "VIA GULLI TOMMASO   62", "Zona": 7, "info": "CENTRO SPORTIVO", "URL": null, "TELEFONO1": null }, "geometry": { "type": "Point", "coordinates": [ 9.128662590250006, 45.465542510642301 ] } }
,
{ "type": "Feature", "id": 91, "properties": { "FAX": null, "Nome": "SAN PROTASO", "Indirizzo": "VIA OSOPPO   2", "Zona": 7, "info": "CENTRO SPORTIVO", "URL": null, "TELEFONO1": null }, "geometry": { "type": "Point", "coordinates": [ 9.143685518044059, 45.469772315454918 ] } }
,
{ "type": "Feature", "id": 92, "properties": { "FAX": null, "Nome": "SANTA CROCE", "Indirizzo": "VIA GOLDONI CARLO   75", "Zona": 3, "info": "CENTRO SPORTIVO", "URL": null, "TELEFONO1": null }, "geometry": { "type": "Point", "coordinates": [ 9.221048796706182, 45.469397191077974 ] } }
,
{ "type": "Feature", "id": 93, "properties": { "FAX": null, "Nome": "SANTI MARTIRI NEREO E ACHILLEO", "Indirizzo": "PZA SAN GEROLAMO   15", "Zona": 3, "info": "CENTRO SPORTIVO", "URL": null, "TELEFONO1": null }, "geometry": { "type": "Point", "coordinates": [ 9.237063128880886, 45.469875896766318 ] } }
,
{ "type": "Feature", "id": 94, "properties": { "FAX": null, "Nome": "SAN VINCENZO DE' PAOLI", "Indirizzo": "VIA PISACANE CARLO   32", "Zona": 3, "info": "CALCIO A 11", "URL": null, "TELEFONO1": null }, "geometry": { "type": "Point", "coordinates": [ 9.211345399618649, 45.471570100560243 ] } }
,
{ "type": "Feature", "id": 95, "properties": { "FAX": null, "Nome": "MATER AMABILIS", "Indirizzo": "VIA PREVIATI GAETANO   8", "Zona": 7, "info": "CENTRO SPORTIVO", "URL": null, "TELEFONO1": null }, "geometry": { "type": "Point", "coordinates": [ 9.150736599208136, 45.472751980913984 ] } }
,
{ "type": "Feature", "id": 96, "properties": { "FAX": null, "Nome": "SAN MARCO", "Indirizzo": "PZA SAN MARCO   2", "Zona": 1, "info": "CENTRO SPORTIVO", "URL": null, "TELEFONO1": null }, "geometry": { "type": "Point", "coordinates": [ 9.188157883529774, 45.473399549431036 ] } }
,
{ "type": "Feature", "id": 97, "properties": { "FAX": null, "Nome": "BEATA VERGINE ADDOLORATA IN S. SIRO", "Indirizzo": "PZA ESQUILINO   1", "Zona": 7, "info": "CENTRO SPORTIVO", "URL": null, "TELEFONO1": null }, "geometry": { "type": "Point", "coordinates": [ 9.13341192246182, 45.475384022050442 ] } }
,
{ "type": "Feature", "id": 98, "properties": { "FAX": null, "Nome": "SANTA ELENA", "Indirizzo": "PZA SANT' ELENA   5", "Zona": 7, "info": "CENTRO SPORTIVO", "URL": null, "TELEFONO1": null }, "geometry": { "type": "Point", "coordinates": [ 9.111556069162592, 45.475858784643115 ] } }
,
{ "type": "Feature", "id": 99, "properties": { "FAX": null, "Nome": "MADONNA DELLA DIVINA PROVVIDENZA", "Indirizzo": "VIA ARPINO   11", "Zona": 7, "info": "CENTRO SPORTIVO", "URL": null, "TELEFONO1": null }, "geometry": { "type": "Point", "coordinates": [ 9.089838789577273, 45.477010245746442 ] } }
,
{ "type": "Feature", "id": 100, "properties": { "FAX": null, "Nome": "ORATORIO S. GIUSEPPE", "Indirizzo": "VIA REDI FRANCESCO   21", "Zona": 3, "info": "CENTRO SPORTIVO", "URL": null, "TELEFONO1": null }, "geometry": { "type": "Point", "coordinates": [ 9.213184971103763, 45.477360617592574 ] } }
,
{ "type": "Feature", "id": 101, "properties": { "FAX": null, "Nome": "SAN PIO X", "Indirizzo": "VIA VILLANI GIOVANNI   2", "Zona": 3, "info": "CENTRO SPORTIVO", "URL": null, "TELEFONO1": null }, "geometry": { "type": "Point", "coordinates": [ 9.225834144421468, 45.47979515039539 ] } }
,
{ "type": "Feature", "id": 102, "properties": { "FAX": null, "Nome": "SAN MARTINO IN LAMBRATE", "Indirizzo": "VIA DEI CANZI   28", "Zona": 3, "info": "CENTRO SPORTIVO", "URL": null, "TELEFONO1": null }, "geometry": { "type": "Point", "coordinates": [ 9.242865301186381, 45.480852647533332 ] } }
,
{ "type": "Feature", "id": 103, "properties": { "FAX": null, "Nome": "SANTO SPIRITO", "Indirizzo": "VIA BASSINI EDOARDO   50", "Zona": 3, "info": "CENTRO SPORTIVO", "URL": null, "TELEFONO1": null }, "geometry": { "type": "Point", "coordinates": [ 9.236977371803414, 45.481297026880938 ] } }
,
{ "type": "Feature", "id": 104, "properties": { "FAX": null, "Nome": "SANTA MARIA NASCENTE", "Indirizzo": "PZA SANTA MARIA NASCENTE   2", "Zona": 8, "info": "CENTRO SPORTIVO", "URL": null, "TELEFONO1": null }, "geometry": { "type": "Point", "coordinates": [ 9.137792749000193, 45.486215826786037 ] } }
,
{ "type": "Feature", "id": 105, "properties": { "FAX": null, "Nome": "SACRO VOLTO", "Indirizzo": "VIA BORSIERI PIETRO   18", "Zona": 9, "info": "CENTRO SPORTIVO", "URL": null, "TELEFONO1": null }, "geometry": { "type": "Point", "coordinates": [ 9.188834224071449, 45.487156423800201 ] } }
,
{ "type": "Feature", "id": 106, "properties": { "FAX": null, "Nome": "SAN IGNAZIO DI LOYOLA", "Indirizzo": "VIA PISANI DOSSI CARLO ALBERTO   25", "Zona": 3, "info": "CENTRO SPORTIVO", "URL": null, "TELEFONO1": null }, "geometry": { "type": "Point", "coordinates": [ 9.243288653234455, 45.488577514331652 ] } }
,
{ "type": "Feature", "id": 107, "properties": { "FAX": null, "Nome": "SANT'AGOSTINO", "Indirizzo": "VIA COPERNICO NICOLO'   9", "Zona": 2, "info": "CALCIO A 11", "URL": null, "TELEFONO1": null }, "geometry": { "type": "Point", "coordinates": [ 9.201118912046926, 45.488062673808059 ] } }
,
{ "type": "Feature", "id": 108, "properties": { "FAX": null, "Nome": "SAN GIOVANNI BATTISTA IN TRENNO", "Indirizzo": "VIA RATTI LUIGI   24", "Zona": 8, "info": "CENTRO SPORTIVO", "URL": null, "TELEFONO1": null }, "geometry": { "type": "Point", "coordinates": [ 9.099404589865966, 45.491169927560456 ] } }
,
{ "type": "Feature", "id": 109, "properties": { "FAX": null, "Nome": "SANTA CECILIA", "Indirizzo": "VIA DELLA CASA GIOVANNI   15", "Zona": 8, "info": "CENTRO SPORTIVO", "URL": null, "TELEFONO1": null }, "geometry": { "type": "Point", "coordinates": [ 9.134749177713704, 45.494883360751615 ] } }
,
{ "type": "Feature", "id": 110, "properties": { "FAX": null, "Nome": "SAN ROCCO AL GENTILINO", "Indirizzo": "PZA CARO TITO LUCREZIO   7", "Zona": 5, "info": "CENTRO SPORTIVO", "URL": null, "TELEFONO1": null }, "geometry": { "type": "Point", "coordinates": [ 9.183868679354649, 45.448946247267905 ] } }
,
{ "type": "Feature", "id": 111, "properties": { "FAX": null, "Nome": "SANTA MARCELLINA", "Indirizzo": "VIA MOSCA ANTONIO   185", "Zona": 7, "info": "CENTRO SPORTIVO", "URL": null, "TELEFONO1": null }, "geometry": { "type": "Point", "coordinates": [ 9.07018691428479, 45.451045094359756 ] } }
,
{ "type": "Feature", "id": 112, "properties": { "FAX": null, "Nome": "SANTI ANGELI CUSTODI", "Indirizzo": "VIA COLLETTA PIETRO   21", "Zona": 4, "info": "CENTRO SPORTIVO", "URL": null, "TELEFONO1": null }, "geometry": { "type": "Point", "coordinates": [ 9.208608976407641, 45.450196159657935 ] } }
,
{ "type": "Feature", "id": 113, "properties": { "FAX": null, "Nome": "SUORE MISERICORDINE", "Indirizzo": "VIA CORSICO   10", "Zona": 6, "info": "CENTRO SPORTIVO", "URL": null, "TELEFONO1": null }, "geometry": { "type": "Point", "coordinates": [ 9.173427285225793, 45.452052614283915 ] } }
,
{ "type": "Feature", "id": 114, "properties": { "FAX": null, "Nome": "SAN EUGENIO", "Indirizzo": "VIA DEL TURCHINO   9", "Zona": 4, "info": "CENTRO SPORTIVO", "URL": null, "TELEFONO1": null }, "geometry": { "type": "Point", "coordinates": [ 9.225951227529979, 45.451617331959028 ] } }
,
{ "type": "Feature", "id": 115, "properties": { "FAX": null, "Nome": "SAN PIO V", "Indirizzo": "VIA LATTANZIO   60", "Zona": 4, "info": "CENTRO SPORTIVO", "URL": null, "TELEFONO1": null }, "geometry": { "type": "Point", "coordinates": [ 9.216822032882879, 45.45244367945871 ] } }
,
{ "type": "Feature", "id": 116, "properties": { "FAX": null, "Nome": "MADONNA DELLA FEDE", "Indirizzo": "VIA DELLE BETULLE   16", "Zona": 7, "info": "CENTRO SPORTIVO", "URL": null, "TELEFONO1": null }, "geometry": { "type": "Point", "coordinates": [ 9.081415915209028, 45.4534408007056 ] } }
,
{ "type": "Feature", "id": 117, "properties": { "FAX": null, "Nome": "SAN GALDINO", "Indirizzo": "VIA SALOMONE ORESTE   23", "Zona": 4, "info": "CENTRO SPORTIVO", "URL": null, "TELEFONO1": null }, "geometry": { "type": "Point", "coordinates": [ 9.241709393445278, 45.454010369520205 ] } }
,
{ "type": "Feature", "id": 118, "properties": { "FAX": null, "Nome": "SAN GIOVANNI BATTISTA ALLA CRETA", "Indirizzo": "PZA SAN GIOVANNI BATTISTA ALLA CRETA   11", "Zona": 6, "info": "CENTRO SPORTIVO", "URL": null, "TELEFONO1": null }, "geometry": { "type": "Point", "coordinates": [ 9.121403722031365, 45.454643573132493 ] } }
,
{ "type": "Feature", "id": 119, "properties": { "FAX": null, "Nome": "SAN VINCENZO IN PRATO", "Indirizzo": "VIA CONCA DEL NAVIGLIO   28", "Zona": 1, "info": "CENTRO SPORTIVO", "URL": null, "TELEFONO1": null }, "geometry": { "type": "Point", "coordinates": [ 9.17700334686962, 45.45539311368654 ] } }
,
{ "type": "Feature", "id": 120, "properties": { "FAX": null, "Nome": "SANTA MARIA DEL ROSARIO", "Indirizzo": "VIA BERGOGNONE AMBROGIO DA FOSSANO   8", "Zona": 6, "info": "CENTRO SPORTIVO", "URL": null, "TELEFONO1": null }, "geometry": { "type": "Point", "coordinates": [ 9.162221514182201, 45.455689839080769 ] } }
,
{ "type": "Feature", "id": 121, "properties": { "FAX": null, "Nome": "SAN FRANCESCO DI SALES", "Indirizzo": "VIA DELLA COMMENDA   37", "Zona": 1, "info": "CALCIO A 11", "URL": null, "TELEFONO1": null }, "geometry": { "type": "Point", "coordinates": [ 9.19946433346405, 45.45578621777085 ] } }
,
{ "type": "Feature", "id": 122, "properties": { "FAX": null, "Nome": "SAN PIER GIULIANO EYMARD", "Indirizzo": "VIA VALSESIA   96", "Zona": 7, "info": "CENTRO SPORTIVO", "URL": "www.sanpiergiuliano.org", "TELEFONO1": null }, "geometry": { "type": "Point", "coordinates": [ 9.094573905746589, 45.455798434979364 ] } }
,
{ "type": "Feature", "id": 123, "properties": { "FAX": "0255011903", "Nome": "SANTI SILVESTRO E MARTINO", "Indirizzo": "VLE LAZIO   19", "Zona": 4, "info": "CENTRO SPORTIVO", "URL": "www.silvestromartino.com", "TELEFONO1": "0255189340" }, "geometry": { "type": "Point", "coordinates": [ 9.207496198990317, 45.455718827493634 ] } }
,
{ "type": "Feature", "id": 124, "properties": { "FAX": null, "Nome": "CASA OPERE PARROCHIALI", "Indirizzo": "VIA SFORZA FRANCESCO   44", "Zona": 1, "info": "CENTRO SPORTIVO", "URL": null, "TELEFONO1": null }, "geometry": { "type": "Point", "coordinates": [ 9.19368918989146, 45.458084049358284 ] } }
,
{ "type": "Feature", "id": 125, "properties": { "FAX": null, "Nome": "SAN NICOLAO DELLA FLUE", "Indirizzo": "VIA DALMAZIA   11", "Zona": 4, "info": "TENNIS", "URL": "www.sannicolao.it", "TELEFONO1": null }, "geometry": { "type": "Point", "coordinates": [ 9.244983282151919, 45.458646273695116 ] } }
,
{ "type": "Feature", "id": 126, "properties": { "FAX": null, "Nome": "SAN LUIGI", "Indirizzo": "VIA CABELLA BARTOLOMEO   18", "Zona": 7, "info": "CENTRO SPORTIVO", "URL": null, "TELEFONO1": null }, "geometry": { "type": "Point", "coordinates": [ 9.09308026721291, 45.459233794535095 ] } }
,
{ "type": "Feature", "id": 127, "properties": { "FAX": null, "Nome": "SAN GIOVANNI CRISOTOMO", "Indirizzo": "VIA CAMBINI LEONARDO   10", "Zona": 2, "info": "CENTRO SPORTIVO", "URL": null, "TELEFONO1": null }, "geometry": { "type": "Point", "coordinates": [ 9.230645478444938, 45.495686071660359 ] } }
,
{ "type": "Feature", "id": 128, "properties": { "FAX": null, "Nome": "SANT'ANGELA MERICI PADRI SACRAMENTINI", "Indirizzo": "VIA CAGLIERO GIOVANNI   26", "Zona": 2, "info": "CENTRO SPORTIVO", "URL": null, "TELEFONO1": null }, "geometry": { "type": "Point", "coordinates": [ 9.200503558222049, 45.49685705240244 ] } }
,
{ "type": "Feature", "id": 129, "properties": { "FAX": null, "Nome": "GESU' MARIA E GIUSEPPE", "Indirizzo": "VIA MAC MAHON   113", "Zona": 8, "info": "CENTRO SPORTIVO", "URL": null, "TELEFONO1": null }, "geometry": { "type": "Point", "coordinates": [ 9.152500441365428, 45.497806697668942 ] } }
,
{ "type": "Feature", "id": 130, "properties": { "FAX": null, "Nome": "SANTA MARIA ASSUNTA IN TURRO", "Indirizzo": "PZA ANELLI GIACOMO   4", "Zona": 2, "info": "CENTRO SPORTIVO", "URL": null, "TELEFONO1": "0288454398" }, "geometry": { "type": "Point", "coordinates": [ 9.223405566175265, 45.498019989701497 ] } }
,
{ "type": "Feature", "id": 131, "properties": { "FAX": "0240910888", "Nome": "HARBOUR CLUB MILANO", "Indirizzo": "VIA CASCINA BELLARIA   19", "Zona": 7, "info": "BODY BUILDING", "URL": null, "TELEFONO1": "02452861" }, "geometry": { "type": "Point", "coordinates": [ 9.105598041175661, 45.481181995969806 ] } }
,
{ "type": "Feature", "id": 132, "properties": { "FAX": null, "Nome": "MILAN CLUB S. APOLLINARE", "Indirizzo": "VIA CASTROVILLARI   14", "Zona": 7, "info": "CENTRO SPORTIVO", "URL": null, "TELEFONO1": "0288456084" }, "geometry": { "type": "Point", "coordinates": [ 9.085787553394841, 45.457140820355235 ] } }
,
{ "type": "Feature", "id": 133, "properties": { "FAX": null, "Nome": "J.F. KENNEDY", "Indirizzo": "VIA OLIVIERI ALESSIO   15", "Zona": 7, "info": "BASEBALL", "URL": null, "TELEFONO1": "0247996783" }, "geometry": { "type": "Point", "coordinates": [ 9.111352447986819, 45.465756165971463 ] } }
,
{ "type": "Feature", "id": 134, "properties": { "FAX": null, "Nome": "ISTITUTO LEONE XIII", "Indirizzo": "VIA ROSSETTI GABRIELE   4", "Zona": 8, "info": "CENTRO SPORTIVO", "URL": null, "TELEFONO1": "024385021" }, "geometry": { "type": "Point", "coordinates": [ 9.161288319409348, 45.473368670106971 ] } }
,
{ "type": "Feature", "id": 135, "properties": { "FAX": null, "Nome": "ASSOCIAZIONE QUARTO OGGIARO VIVIBILE", "Indirizzo": "VIA INVERNIZIO CAROLINA   7", "Zona": 8, "info": "PALLACANESTRO", "URL": null, "TELEFONO1": "023574577" }, "geometry": { "type": "Point", "coordinates": [ 9.135149747989468, 45.513866379103938 ] } }
,
{ "type": "Feature", "id": 136, "properties": { "FAX": null, "Nome": "A.S. SEMPIONE HALF 1919", "Indirizzo": "VIA ALDINI ANTONIO   77", "Zona": 8, "info": "CENTRO SPORTIVO", "URL": null, "TELEFONO1": "0239002250" }, "geometry": { "type": "Point", "coordinates": [ 9.130503606835703, 45.511368010821244 ] } }
,
{ "type": "Feature", "id": 137, "properties": { "FAX": null, "Nome": "CLUB DEGLI AMICI VILLAPIZZONE", "Indirizzo": "VIA PERIN DEL VAGA   11", "Zona": 8, "info": "CENTRO SPORTIVO", "URL": null, "TELEFONO1": "023086773" }, "geometry": { "type": "Point", "coordinates": [ 9.134467581058214, 45.499521351671014 ] } }
,
{ "type": "Feature", "id": 138, "properties": { "FAX": null, "Nome": "G.S. S. ROMANO", "Indirizzo": "VIA ARMANDO PICCHI    1", "Zona": 8, "info": "CENTRO SPORTIVO", "URL": null, "TELEFONO1": "0238100024" }, "geometry": { "type": "Point", "coordinates": [ 9.104907024176709, 45.499342659061206 ] } }
,
{ "type": "Feature", "id": 139, "properties": { "FAX": null, "Nome": "ASSOCIAZIONE  TENNIS CLUB NIEVO IPPOLITO", "Indirizzo": "VIA UGUCCIONE DA PISA   1", "Zona": 8, "info": "CENTRO SPORTIVO", "URL": null, "TELEFONO1": "0288456074" }, "geometry": { "type": "Point", "coordinates": [ 9.162076382317347, 45.474638895216984 ] } }
,
{ "type": "Feature", "id": 140, "properties": { "FAX": null, "Nome": "FEDERAZIONE ITALIANA BOCCE BOCC. CANDIANI", "Indirizzo": "VIA CANDIANI GIUSEPPE    26", "Zona": 9, "info": "BOCCIODROMO", "URL": null, "TELEFONO1": "023760633" }, "geometry": { "type": "Point", "coordinates": [ 9.170428966770292, 45.504956877670217 ] } }
,
{ "type": "Feature", "id": 141, "properties": { "FAX": null, "Nome": "SOCIETA' COOP. A R.L. TENNIS MASTER", "Indirizzo": "VIA GOVONE GIUSEPPE   67", "Zona": 8, "info": "TENNIS", "URL": null, "TELEFONO1": "023494041" }, "geometry": { "type": "Point", "coordinates": [ 9.162106867855608, 45.493192127619828 ] } }
,
{ "type": "Feature", "id": 142, "properties": { "FAX": null, "Nome": "A.S. MASSERONI MARCHESE", "Indirizzo": "VIA MADRUZZO CRISTOFORO   3", "Zona": 8, "info": "CALCIO A 11", "URL": null, "TELEFONO1": "02466142" }, "geometry": { "type": "Point", "coordinates": [ 9.148445256946102, 45.480371047526987 ] } }
,
{ "type": "Feature", "id": 143, "properties": { "FAX": null, "Nome": "GIOVANNI MAURO", "Indirizzo": "VIA USSI STEFANO   18", "Zona": 9, "info": "CENTRO SPORTIVO", "URL": "www.villacalcio.milano.it", "TELEFONO1": "026435564" }, "geometry": { "type": "Point", "coordinates": [ 9.209480228341205, 45.507496804588925 ] } }
,
{ "type": "Feature", "id": 144, "properties": { "FAX": "0258100012", "Nome": "MILANO SPORT SPA", "Indirizzo": "VIA SEGANTINI GIOVANNI   6", "Zona": 6, "info": "CENTRO BALNEARE", "URL": "www.milanosport.it", "TELEFONO1": "0258100012" }, "geometry": { "type": "Point", "coordinates": [ 9.17284541070133, 45.449328338452297 ] } }
,
{ "type": "Feature", "id": 145, "properties": { "FAX": null, "Nome": "SANTI GIOVANNI E PAOLO", "Indirizzo": "VIA CATONE MARCO PORCIO   10", "Zona": 9, "info": "CENTRO SPORTIVO", "URL": null, "TELEFONO1": null }, "geometry": { "type": "Point", "coordinates": [ 9.171313248041674, 45.497887613693351 ] } }
,
{ "type": "Feature", "id": 146, "properties": { "FAX": null, "Nome": "SANTA MARCELINA E SAN GIUSEPPE ALLA CERTOSA", "Indirizzo": "VLE ESPINASSE CARLO   85", "Zona": 8, "info": "CENTRO SPORTIVO", "URL": null, "TELEFONO1": null }, "geometry": { "type": "Point", "coordinates": [ 9.141142850503638, 45.498574904502291 ] } }
,
{ "type": "Feature", "id": 147, "properties": { "FAX": null, "Nome": "SAN GEROLAMO EMILIANI", "Indirizzo": "VIA CALABRIA DON GIOVANNI   36", "Zona": 3, "info": "CENTRO SPORTIVO", "URL": null, "TELEFONO1": null }, "geometry": { "type": "Point", "coordinates": [ 9.245083062490771, 45.501138423496876 ] } }
,
{ "type": "Feature", "id": 148, "properties": { "FAX": null, "Nome": "SAN MARTINO IN VILLAPIZZONE", "Indirizzo": "PZA VILLAPIZZONE   10", "Zona": 8, "info": "CENTRO SPORTIVO", "URL": null, "TELEFONO1": null }, "geometry": { "type": "Point", "coordinates": [ 9.14871447205585, 45.501423820056203 ] } }
,
{ "type": "Feature", "id": 149, "properties": { "FAX": null, "Nome": "SANTA TERESA DEL BAMBIN GESU'", "Indirizzo": "VIA ARISTOTELE   8", "Zona": 2, "info": "CENTRO SPORTIVO", "URL": null, "TELEFONO1": null }, "geometry": { "type": "Point", "coordinates": [ 9.224579009782717, 45.505894723259075 ] } }
,
{ "type": "Feature", "id": 150, "properties": { "FAX": null, "Nome": "SAN CARLO ALLA CA' GRANDA", "Indirizzo": "LGO RAPALLO   5", "Zona": 9, "info": "CENTRO SPORTIVO", "URL": null, "TELEFONO1": null }, "geometry": { "type": "Point", "coordinates": [ 9.192612551890601, 45.506461080172905 ] } }
,
{ "type": "Feature", "id": 151, "properties": { "FAX": null, "Nome": "QIQJAN", "Indirizzo": "VIA FARINI CARLO   17", "Zona": 8, "info": "CENTRO SPORTIVO", "URL": null, "TELEFONO1": null }, "geometry": { "type": "Point", "coordinates": [ 9.181811744497836, 45.48522396094797 ] } }
,
{ "type": "Feature", "id": 152, "properties": { "FAX": null, "Nome": "SACRA FAMIGLIA", "Indirizzo": "VIA BUONARROTI MICHELANGELO   49", "Zona": 8, "info": "CENTRO SPORTIVO", "URL": null, "TELEFONO1": null }, "geometry": { "type": "Point", "coordinates": [ 9.155161609290303, 45.472682404776265 ] } }
,
{ "type": "Feature", "id": 153, "properties": { "FAX": null, "Nome": "SAN SIMPLICIANO", "Indirizzo": "PZA SAN SIMPLICIANO   7", "Zona": 1, "info": "CALCIO A 11", "URL": null, "TELEFONO1": null }, "geometry": { "type": "Point", "coordinates": [ 9.184052460681476, 45.473885484763997 ] } }
,
{ "type": "Feature", "id": 154, "properties": { "FAX": null, "Nome": "SAN FRANCESCO D'ASSISI AL FOPPONINO", "Indirizzo": "VIA GIOVIO PAOLO   41", "Zona": 7, "info": "CENTRO SPORTIVO", "URL": null, "TELEFONO1": null }, "geometry": { "type": "Point", "coordinates": [ 9.162239915572068, 45.462437228651986 ] } }
,
{ "type": "Feature", "id": 155, "properties": { "FAX": null, "Nome": "SANT'AMBROGIO", "Indirizzo": "PZA SANT' AMBROGIO   15", "Zona": 1, "info": "CENTRO SPORTIVO", "URL": null, "TELEFONO1": null }, "geometry": { "type": "Point", "coordinates": [ 9.176063004115212, 45.463227314859317 ] } }
,
{ "type": "Feature", "id": 156, "properties": { "FAX": null, "Nome": "ISITUTO CASATI", "Indirizzo": "VIA ARENA   13", "Zona": 1, "info": "CENTRO SPORTIVO", "URL": null, "TELEFONO1": null }, "geometry": { "type": "Point", "coordinates": [ 9.17935341096733, 45.455871577308208 ] } }
,
{ "type": "Feature", "id": 157, "properties": { "FAX": null, "Nome": "ISTITUTO SUORE SANTA DOROTEA DI CEMMO", "Indirizzo": "VLE GIOVANNI DA CERMENATE   4", "Zona": 5, "info": "CENTRO SPORTIVO", "URL": null, "TELEFONO1": null }, "geometry": { "type": "Point", "coordinates": [ 9.176689395047015, 45.437295842836612 ] } }
,
{ "type": "Feature", "id": 158, "properties": { "FAX": null, "Nome": "SANTA MARIA ANNUNCIATA IN CHIESA ROSSA", "Indirizzo": "VIA NEERA ANNA   24", "Zona": 5, "info": "CENTRO SPORTIVO", "URL": null, "TELEFONO1": null }, "geometry": { "type": "Point", "coordinates": [ 9.178196876325171, 45.432939373519154 ] } }
,
{ "type": "Feature", "id": 159, "properties": { "FAX": null, "Nome": "ISTITUTO ZACCARIA", "Indirizzo": "VIA DELLA COMMENDA   3", "Zona": 1, "info": "CENTRO SPORTIVO", "URL": null, "TELEFONO1": null }, "geometry": { "type": "Point", "coordinates": [ 9.198823659574563, 45.459497639744512 ] } }
,
{ "type": "Feature", "id": 160, "properties": { "FAX": null, "Nome": "MONASTERO S. BENEDETTO", "Indirizzo": "VIA BELLOTTI FELICE   10", "Zona": 3, "info": "FITNESS MACCHINE", "URL": null, "TELEFONO1": null }, "geometry": { "type": "Point", "coordinates": [ 9.208890244146957, 45.470638558275859 ] } }
,
{ "type": "Feature", "id": 161, "properties": { "FAX": null, "Nome": "MARIA AUSILIATRICE", "Indirizzo": "VLE SUZZANI GIOVANNI   64", "Zona": 9, "info": "CENTRO SPORTIVO", "URL": null, "TELEFONO1": null }, "geometry": { "type": "Point", "coordinates": [ 9.19905107729897, 45.508423160402309 ] } }
,
{ "type": "Feature", "id": 162, "properties": { "FAX": null, "Nome": "SANTA MARIA ROSSA", "Indirizzo": "VIA BERRA DOMENICO   11", "Zona": 2, "info": "CENTRO SPORTIVO", "URL": null, "TELEFONO1": null }, "geometry": { "type": "Point", "coordinates": [ 9.2488384537727, 45.508601786595605 ] } }
,
{ "type": "Feature", "id": 163, "properties": { "FAX": null, "Nome": "ANNUNCIAZIONE", "Indirizzo": "VIA SCIALOIA VITTORIO   5", "Zona": 9, "info": "CENTRO SPORTIVO", "URL": null, "TELEFONO1": null }, "geometry": { "type": "Point", "coordinates": [ 9.178573668762095, 45.51209406025248 ] } }
,
{ "type": "Feature", "id": 164, "properties": { "FAX": null, "Nome": "SAN MICHELE ARCANGELO IN PRECOTTO", "Indirizzo": "VLE MONZA   224", "Zona": 2, "info": "CENTRO SPORTIVO", "URL": "www.parrocchiasanmicheleprecotto.org", "TELEFONO1": null }, "geometry": { "type": "Point", "coordinates": [ 9.224965659092842, 45.512869080067404 ] } }
,
{ "type": "Feature", "id": 165, "properties": { "FAX": null, "Nome": "SAN FILIPPO NERI IN BOVISASCA", "Indirizzo": "VIA GABBRO   2", "Zona": 9, "info": "CENTRO SPORTIVO", "URL": null, "TELEFONO1": null }, "geometry": { "type": "Point", "coordinates": [ 9.158296847824452, 45.514671598544922 ] } }
,
{ "type": "Feature", "id": 166, "properties": { "FAX": null, "Nome": "SANT'AGNESE", "Indirizzo": "VIA ARSIA   3", "Zona": 8, "info": "CENTRO SPORTIVO", "URL": null, "TELEFONO1": null }, "geometry": { "type": "Point", "coordinates": [ 9.128026910719207, 45.514458760531333 ] } }
,
{ "type": "Feature", "id": 167, "properties": { "FAX": null, "Nome": "SANTA LUCIA", "Indirizzo": "VIA DE ROBERTO FEDERICO   20", "Zona": 8, "info": "CENTRO SPORTIVO", "URL": null, "TELEFONO1": null }, "geometry": { "type": "Point", "coordinates": [ 9.141076478796981, 45.515661795466549 ] } }
,
{ "type": "Feature", "id": 168, "properties": { "FAX": null, "Nome": "SAN MARTINO IN NIGUARDA", "Indirizzo": "PZA BELLOVESO   5", "Zona": 9, "info": "CENTRO SPORTIVO", "URL": null, "TELEFONO1": null }, "geometry": { "type": "Point", "coordinates": [ 9.194565965845644, 45.515748716667176 ] } }
,
{ "type": "Feature", "id": 169, "properties": { "FAX": null, "Nome": "G.S. LA SPEZIA CALCIO", "Indirizzo": "VLE FAMAGOSTA   79", "Zona": 6, "info": "CENTRO SPORTIVO", "URL": null, "TELEFONO1": "0289501307" }, "geometry": { "type": "Point", "coordinates": [ 9.167899563933025, 45.437813486024559 ] } }
,
{ "type": "Feature", "id": 170, "properties": { "FAX": null, "Nome": "FEDERAZIONE GINNASTICA D'ITALIA", "Indirizzo": "VIA OVADA   40", "Zona": 6, "info": "CENTRO SPORTIVO", "URL": "www.fgilombarida.it", "TELEFONO1": "0289122083" }, "geometry": { "type": "Point", "coordinates": [ 9.161883028821714, 45.435933081899385 ] } }
,
{ "type": "Feature", "id": 171, "properties": { "FAX": null, "Nome": "PALAUNO", "Indirizzo": "LARGO BALESTRA ANTONIO   5", "Zona": 6, "info": "CENTRO SPORTIVO", "URL": null, "TELEFONO1": "024235448" }, "geometry": { "type": "Point", "coordinates": [ 9.142432799601728, 45.447219068944761 ] } }
,
{ "type": "Feature", "id": 172, "properties": { "FAX": "0248300873", "Nome": "GIORDANO DELL'AMORE", "Indirizzo": "VIA GONIN FRANCESCO   16", "Zona": 6, "info": "CENTRO SPORTIVO", "URL": "www.lorenteggio.sistemacalcio.com", "TELEFONO1": "0248300873" }, "geometry": { "type": "Point", "coordinates": [ 9.126243652555212, 45.443584335896865 ] } }
,
{ "type": "Feature", "id": 173, "properties": { "FAX": null, "Nome": "A.S. CAMPO OLIMPIA", "Indirizzo": "VIA SODERINI LUIGI   41 2", "Zona": 6, "info": "CENTRO SPORTIVO", "URL": null, "TELEFONO1": null }, "geometry": { "type": "Point", "coordinates": [ 9.138024702446407, 45.4551413439616 ] } }
,
{ "type": "Feature", "id": 174, "properties": { "FAX": null, "Nome": "U.S.  ACLI  I  S.C.R.L.", "Indirizzo": "VIA LOPE DE VEGA FELICE   35", "Zona": 6, "info": "CENTRO SPORTIVO", "URL": "www.aclimilano.com\/impianti", "TELEFONO1": "0289128379" }, "geometry": { "type": "Point", "coordinates": [ 9.163075004744377, 45.439360453447961 ] } }
,
{ "type": "Feature", "id": 175, "properties": { "FAX": "024121821", "Nome": "AGORA'", "Indirizzo": "VIA DEI CICLAMINI   23", "Zona": 6, "info": "CENTRO SPORTIVO", "URL": "www.stadioghiaccio.it", "TELEFONO1": "0248300946" }, "geometry": { "type": "Point", "coordinates": [ 9.128556155746594, 45.45505436163041 ] } }
,
{ "type": "Feature", "id": 176, "properties": { "FAX": null, "Nome": "ISTITUTO SALESIANO DON BOSCO", "Indirizzo": "VIA GIOIA MELCHIORRE   50", "Zona": 2, "info": "CENTRO SPORTIVO", "URL": null, "TELEFONO1": null }, "geometry": { "type": "Point", "coordinates": [ 9.199829456527016, 45.48824677993926 ] } }
,
{ "type": "Feature", "id": 177, "properties": { "FAX": null, "Nome": "ACCADEMIA DEL KARATE STUDIO SHIRAI", "Indirizzo": "VIA FRIULI   65", "Zona": 4, "info": "GINNASTICA", "URL": null, "TELEFONO1": "025516054" }, "geometry": { "type": "Point", "coordinates": [ 9.214534324101862, 45.456155952165048 ] } }
,
{ "type": "Feature", "id": 178, "properties": { "FAX": "02782693", "Nome": "STUDIO PILATES SRL", "Indirizzo": "VIA MORELLI GIOVANNI   4", "Zona": 1, "info": "GINNASTICA", "URL": null, "TELEFONO1": "02782693" }, "geometry": { "type": "Point", "coordinates": [ 9.206304786379059, 45.471824623291226 ] } }
,
{ "type": "Feature", "id": 179, "properties": { "FAX": "023088183", "Nome": "FUORI DI DANZA SNC DI C. RICHARDSON E G. RIVA", "Indirizzo": "VIA GALLARATE   50", "Zona": 8, "info": "GINNASTICA", "URL": null, "TELEFONO1": "023088183" }, "geometry": { "type": "Point", "coordinates": [ 9.137650801388633, 45.495180254065104 ] } }
,
{ "type": "Feature", "id": 180, "properties": { "FAX": null, "Nome": "ALBERO DELLA VITA", "Indirizzo": "VIA GORKI MASSIMO   1", "Zona": 6, "info": "GINNASTICA", "URL": null, "TELEFONO1": "02428675" }, "geometry": { "type": "Point", "coordinates": [ 9.150291364404815, 45.450894023999474 ] } }
,
{ "type": "Feature", "id": 181, "properties": { "FAX": "0229529213", "Nome": "PALESTRA LORINI CENTRO BENESSERE JING QI", "Indirizzo": "VIA KRAMER ANTONIO   32", "Zona": 3, "info": "GINNASTICA", "URL": null, "TELEFONO1": "0229529213" }, "geometry": { "type": "Point", "coordinates": [ 9.208616230836245, 45.471853114705254 ] } }
,
{ "type": "Feature", "id": 182, "properties": { "FAX": "025513785", "Nome": "ISTITUTO EDMONDO DE AMICIS", "Indirizzo": "VIA LAMARMORA ALFONSO   34", "Zona": 1, "info": "GINNASTICA", "URL": null, "TELEFONO1": "0255195153" }, "geometry": { "type": "Point", "coordinates": [ 9.201645237692791, 45.45684148384732 ] } }
,
{ "type": "Feature", "id": 183, "properties": { "FAX": "0248009979", "Nome": "ISTITUTO LEONE XIII", "Indirizzo": "VIA LEONE XIII   12", "Zona": 8, "info": "GINNASTICA", "URL": null, "TELEFONO1": "024385021" }, "geometry": { "type": "Point", "coordinates": [ 9.163192768603418, 45.474263479222458 ] } }
,
{ "type": "Feature", "id": 184, "properties": { "FAX": "0229536117", "Nome": "MILANO SPORT SPA", "Indirizzo": "VIA PICCINNI NICOLA   8", "Zona": 3, "info": "PISCINA", "URL": "www.milanosport.it", "TELEFONO1": "0229400393" }, "geometry": { "type": "Point", "coordinates": [ 9.215407954095468, 45.482335922967579 ] } }
,
{ "type": "Feature", "id": 185, "properties": { "FAX": "0243983187", "Nome": "MILANO SPORT SPA", "Indirizzo": "VIA MONTEVIDEO   11", "Zona": 6, "info": "PISCINA", "URL": "www.miltanosport.it", "TELEFONO1": "024695278" }, "geometry": { "type": "Point", "coordinates": [ 9.165481338614072, 45.456864722286106 ] } }
,
{ "type": "Feature", "id": 186, "properties": { "FAX": "0233202100", "Nome": "CANTU'", "Indirizzo": "VIA GRAF ARTURO   8", "Zona": 8, "info": "PISCINA", "URL": "www.milanosport.it", "TELEFONO1": "023559104" }, "geometry": { "type": "Point", "coordinates": [ 9.140141999072018, 45.512579948808678 ] } }
,
{ "type": "Feature", "id": 187, "properties": { "FAX": null, "Nome": "MILANO SPORTIVA A.S.D", "Indirizzo": "VIA ISEO   10", "Zona": 9, "info": "NUOTO", "URL": "www.csiseo.it", "TELEFONO1": "0297384581" }, "geometry": { "type": "Point", "coordinates": [ 9.173132871435829, 45.520840784729224 ] } }
,
{ "type": "Feature", "id": 188, "properties": { "FAX": null, "Nome": "MILANO SPORTIVA A.S.D", "Indirizzo": "VIA ISEO   4", "Zona": 9, "info": "TENNIS", "URL": "www.csiseo.it", "TELEFONO1": "0297384581" }, "geometry": { "type": "Point", "coordinates": [ 9.17432490345151, 45.519943616441161 ] } }
,
{ "type": "Feature", "id": 189, "properties": { "FAX": null, "Nome": "ANTONIO MASPES - VIGORELLI", "Indirizzo": "VIA ARONA   19", "Zona": 8, "info": "CENTRO SPORTIVO", "URL": "www.milanosport.it", "TELEFONO1": "023311513" }, "geometry": { "type": "Point", "coordinates": [ 9.158258484050908, 45.482156490048752 ] } }
,
{ "type": "Feature", "id": 190, "properties": { "FAX": "0239210739", "Nome": "LIDO DI MILANO", "Indirizzo": "PLE LOTTO LORENZO   15", "Zona": 8, "info": "CENTRO SPORTIVO", "URL": "www.milanosport.it", "TELEFONO1": "0239266100" }, "geometry": { "type": "Point", "coordinates": [ 9.141940215210047, 45.480563925230378 ] } }
,
{ "type": "Feature", "id": 191, "properties": { "FAX": "0239210739", "Nome": "PALALIDO", "Indirizzo": "PZA STUPARICH CARLO   1", "Zona": 8, "info": "CENTRO SPORTIVO", "URL": "www.milanosport.it", "TELEFONO1": "0239266100" }, "geometry": { "type": "Point", "coordinates": [ 9.142829990550467, 45.482470030598343 ] } }
,
{ "type": "Feature", "id": 192, "properties": { "FAX": "0239262162", "Nome": "XXV APRILE", "Indirizzo": "VIA CIMABUE GIOVANNI   24", "Zona": 8, "info": "CENTRO SPORTIVO", "URL": "www.milanosport.it", "TELEFONO1": "0239262162" }, "geometry": { "type": "Point", "coordinates": [ 9.138502959568923, 45.488744309923803 ] } }
,
{ "type": "Feature", "id": 193, "properties": { "FAX": null, "Nome": "SAN GIOVANNI BATTISTA ALLA BICOCCA", "Indirizzo": "VIA LA FARINA GIUSEPPE   15", "Zona": 9, "info": "CENTRO SPORTIVO", "URL": null, "TELEFONO1": null }, "geometry": { "type": "Point", "coordinates": [ 9.207317898949935, 45.516012975435423 ] } }
,
{ "type": "Feature", "id": 194, "properties": { "FAX": null, "Nome": "SANTA GIUSTINA", "Indirizzo": "VLE AFFORI   12", "Zona": 9, "info": "CENTRO SPORTIVO", "URL": null, "TELEFONO1": null }, "geometry": { "type": "Point", "coordinates": [ 9.170292252572743, 45.517124815504296 ] } }
,
{ "type": "Feature", "id": 195, "properties": { "FAX": null, "Nome": "RESURREZIONE", "Indirizzo": "VIA LESSONA MICHELE   70", "Zona": 8, "info": "CENTRO SPORTIVO", "URL": null, "TELEFONO1": null }, "geometry": { "type": "Point", "coordinates": [ 9.136156822051079, 45.520953272034049 ] } }
,
{ "type": "Feature", "id": 196, "properties": { "FAX": null, "Nome": "CRISTO RE", "Indirizzo": "VIA GALENO CLAUDIO   32", "Zona": 2, "info": "CENTRO SPORTIVO", "URL": null, "TELEFONO1": null }, "geometry": { "type": "Point", "coordinates": [ 9.223891351531206, 45.520045027174859 ] } }
,
{ "type": "Feature", "id": 197, "properties": { "FAX": null, "Nome": "SAN BERNARDO IN COMASINA", "Indirizzo": "PZA GASPARRI PIETRO   11", "Zona": 9, "info": "CENTRO SPORTIVO", "URL": null, "TELEFONO1": null }, "geometry": { "type": "Point", "coordinates": [ 9.160673773903516, 45.526396179309828 ] } }
,
{ "type": "Feature", "id": 198, "properties": { "FAX": null, "Nome": "ORATORIO CENTRO GIOVANILE SAN LUIGI", "Indirizzo": "VIA ACERBI ENRICO   12", "Zona": 9, "info": "PALLACANESTRO", "URL": null, "TELEFONO1": null }, "geometry": { "type": "Point", "coordinates": [ 9.176963819695551, 45.528389952706497 ] } }
,
{ "type": "Feature", "id": 199, "properties": { "FAX": null, "Nome": "SAN BASILIO", "Indirizzo": "VIA CAROLI LUIGI   12", "Zona": 2, "info": "CENTRO SPORTIVO", "URL": null, "TELEFONO1": null }, "geometry": { "type": "Point", "coordinates": [ 9.238426158536218, 45.508590596959849 ] } }
,
{ "type": "Feature", "id": 200, "properties": { "FAX": null, "Nome": "A.C. CRESCENZAGO", "Indirizzo": "VIA TRASIMENO   25", "Zona": 2, "info": "CENTRO SPORTIVO", "URL": "www.ac-crescenzago.it", "TELEFONO1": "027207408" }, "geometry": { "type": "Point", "coordinates": [ 9.249349075559628, 45.513185533293019 ] } }
,
{ "type": "Feature", "id": 201, "properties": { "FAX": null, "Nome": "FIN FEDERAZIONE ITALIANA NUOTO SAMUELE", "Indirizzo": "VIA TRANI   1", "Zona": 4, "info": "PISCINA", "URL": null, "TELEFONO1": "025061347" }, "geometry": { "type": "Point", "coordinates": [ 9.245064256823481, 45.453794406903818 ] } }
,
{ "type": "Feature", "id": 202, "properties": { "FAX": "02502918", "Nome": "A.C. MACALLESI 1927", "Indirizzo": "VLE UNGHERIA   5", "Zona": 4, "info": "CENTRO SPORTIVO", "URL": "www.macallesi.it", "TELEFONO1": "025061901" }, "geometry": { "type": "Point", "coordinates": [ 9.244299438276606, 45.445883808570244 ] } }
,
{ "type": "Feature", "id": 203, "properties": { "FAX": null, "Nome": "ASSOCIAZIONE  TENNIS PORTA ROMANA", "Indirizzo": "LGO PARENTI FRANCO   2", "Zona": 4, "info": "FITNESS MACCHINE", "URL": null, "TELEFONO1": "025460946" }, "geometry": { "type": "Point", "coordinates": [ 9.20583458251334, 45.453532326407 ] } }
,
{ "type": "Feature", "id": 204, "properties": { "FAX": null, "Nome": "C.S. FATIMA", "Indirizzo": "VIA CHOPIN FEDERICO   81", "Zona": 5, "info": "CENTRO SPORTIVO", "URL": null, "TELEFONO1": "025693053" }, "geometry": { "type": "Point", "coordinates": [ 9.208086030260297, 45.425117777999724 ] } }
,
{ "type": "Feature", "id": 205, "properties": { "FAX": null, "Nome": "A.S. LOMBARDIA UNO POLISPORTIVA", "Indirizzo": "VIA DE NICOLA ENRICO   3", "Zona": 6, "info": "CENTRO SPORTIVO", "URL": null, "TELEFONO1": "028135386" }, "geometry": { "type": "Point", "coordinates": [ 9.15648433840153, 45.431355417116499 ] } }
,
{ "type": "Feature", "id": 206, "properties": { "FAX": null, "Nome": "ASSOCIAZIONE SPORTIVA 70A DANCE & FITNESS", "Indirizzo": "VLE ABRUZZI   70  A", "Zona": 3, "info": "FITNESS MACCHINE", "URL": null, "TELEFONO1": "0229406119" }, "geometry": { "type": "Point", "coordinates": [ 9.217287375656866, 45.482568815998725 ] } }
,
{ "type": "Feature", "id": 207, "properties": { "FAX": null, "Nome": "ACQUAMICA SRL", "Indirizzo": "VIA DI TOCQUEVILLE ALESSIO   7", "Zona": 9, "info": "FITNESS MACCHINE", "URL": null, "TELEFONO1": "026554677" }, "geometry": { "type": "Point", "coordinates": [ 9.186107462055077, 45.482844268192331 ] } }
,
{ "type": "Feature", "id": 208, "properties": { "FAX": null, "Nome": "ALTAGUARDIA 6 SRL PALESTRA CENTRO ESTETICO", "Indirizzo": "VIA ALTAGUARDIA   6", "Zona": 5, "info": "FITNESS MACCHINE", "URL": null, "TELEFONO1": "0258302528" }, "geometry": { "type": "Point", "coordinates": [ 9.19945156968703, 45.450283993978026 ] } }
,
{ "type": "Feature", "id": 209, "properties": { "FAX": null, "Nome": "A.S. CRISTAL CLUB", "Indirizzo": "VIA AMPERE ANDREA MARIA   122", "Zona": 3, "info": "FITNESS MACCHINE", "URL": null, "TELEFONO1": "0226111950" }, "geometry": { "type": "Point", "coordinates": [ 9.226554129230394, 45.488041425708126 ] } }
,
{ "type": "Feature", "id": 210, "properties": { "FAX": "0233611488", "Nome": "FIGURELLA MILANO SEMPIONE", "Indirizzo": "VIA LONDONIO FRANCESCO   20", "Zona": 8, "info": "GINNASTICA", "URL": null, "TELEFONO1": "0233611486" }, "geometry": { "type": "Point", "coordinates": [ 9.169203961654226, 45.480247581915471 ] } }
,
{ "type": "Feature", "id": 211, "properties": { "FAX": null, "Nome": "ACCADUEO' & AREATERRA", "Indirizzo": "VLE LUCANIA   27", "Zona": 4, "info": "GINNASTICA", "URL": null, "TELEFONO1": "0255230786" }, "geometry": { "type": "Point", "coordinates": [ 9.223826133204298, 45.443204232110887 ] } }
,
{ "type": "Feature", "id": 212, "properties": { "FAX": null, "Nome": "AIKIDO PALESTRA", "Indirizzo": "VIA LULLI GIOVANNI   30", "Zona": 3, "info": "GINNASTICA", "URL": null, "TELEFONO1": "022896939" }, "geometry": { "type": "Point", "coordinates": [ 9.221238507034251, 45.486960207461792 ] } }
,
{ "type": "Feature", "id": 213, "properties": { "FAX": "028460880", "Nome": "ECOLIFE EVOLUZIONE SALUTE E AMBIENTE SRL", "Indirizzo": "PZA AGRIPPA MARCO   12", "Zona": 5, "info": "GINNASTICA", "URL": null, "TELEFONO1": "028460880" }, "geometry": { "type": "Point", "coordinates": [ 9.183526286343861, 45.432657192081592 ] } }
,
{ "type": "Feature", "id": 214, "properties": { "FAX": null, "Nome": "FISIO DYNAMIC SA DI R. CAPUANA", "Indirizzo": "VIA MAIOCCHI ACHILLE   8", "Zona": 3, "info": "GINNASTICA", "URL": null, "TELEFONO1": "02201359" }, "geometry": { "type": "Point", "coordinates": [ 9.212525973013042, 45.474940231516783 ] } }
,
{ "type": "Feature", "id": 215, "properties": { "FAX": "0289054669", "Nome": "ACCADEMIA EUROPEA", "Indirizzo": "VIA MELZO   9", "Zona": 3, "info": "GINNASTICA", "URL": null, "TELEFONO1": "0229409080" }, "geometry": { "type": "Point", "coordinates": [ 9.209427433122462, 45.473331785726984 ] } }
,
{ "type": "Feature", "id": 216, "properties": { "FAX": "0267078197", "Nome": "MILANO SPORT SPA", "Indirizzo": "VIA DE MARCHI EMILIO   17", "Zona": 2, "info": "PISCINA", "URL": "www.milanosport.it", "TELEFONO1": "026706063" }, "geometry": { "type": "Point", "coordinates": [ 9.208329879907534, 45.498828116881157 ] } }
,
{ "type": "Feature", "id": 217, "properties": { "FAX": "022593610", "Nome": "OPEN DANCE CENTER SRL", "Indirizzo": "VIA MEUCCI ANTONIO   73", "Zona": 2, "info": "GINNASTICA", "URL": null, "TELEFONO1": "0227201180" }, "geometry": { "type": "Point", "coordinates": [ 9.238498288707678, 45.507721071476311 ] } }
,
{ "type": "Feature", "id": 218, "properties": { "FAX": "0227001350", "Nome": "FIGURELLA MILANO PRECOTTO", "Indirizzo": "VLE MONZA   261", "Zona": 2, "info": "GINNASTICA", "URL": null, "TELEFONO1": "0227003253" }, "geometry": { "type": "Point", "coordinates": [ 9.22341464727532, 45.511886371830215 ] } }
,
{ "type": "Feature", "id": 219, "properties": { "FAX": null, "Nome": "ISTITUTO SALESIANO DON BOSCO", "Indirizzo": "VIA TONALE   19", "Zona": 2, "info": "CENTRO SPORTIVO", "URL": null, "TELEFONO1": null }, "geometry": { "type": "Point", "coordinates": [ 9.201374961551366, 45.489335853712404 ] } }
,
{ "type": "Feature", "id": 220, "properties": { "FAX": null, "Nome": "SANTA MARIA BELTRADE", "Indirizzo": "VIA OXILIA NINO   8", "Zona": 2, "info": "CENTRO SPORTIVO", "URL": null, "TELEFONO1": null }, "geometry": { "type": "Point", "coordinates": [ 9.215377835848319, 45.492603998705171 ] } }
,
{ "type": "Feature", "id": 221, "properties": { "FAX": null, "Nome": "SAN GABRIELE IN MATER DEI", "Indirizzo": "VIA TERMOPILI   5", "Zona": 2, "info": "CENTRO SPORTIVO", "URL": null, "TELEFONO1": null }, "geometry": { "type": "Point", "coordinates": [ 9.219982879099142, 45.491238195028878 ] } }
,
{ "type": "Feature", "id": 222, "properties": { "FAX": null, "Nome": "SAN DOMENICO SAVIO", "Indirizzo": "VIA ROVIGNO   19", "Zona": 2, "info": "CENTRO SPORTIVO", "URL": null, "TELEFONO1": null }, "geometry": { "type": "Point", "coordinates": [ 9.219524082810523, 45.50240664461996 ] } }
,
{ "type": "Feature", "id": 223, "properties": { "FAX": null, "Nome": "SAN GIUSEPPE DEI MORENTI", "Indirizzo": "VIA CELENTANO BERNARDO   14", "Zona": 2, "info": "CENTRO SPORTIVO", "URL": null, "TELEFONO1": null }, "geometry": { "type": "Point", "coordinates": [ 9.240439402611106, 45.501277604419116 ] } }
,
{ "type": "Feature", "id": 224, "properties": { "FAX": null, "Nome": "ISTITUTO SAN GIUSEPPE", "Indirizzo": "VIA DE LA SALLE SAN GIOVANNI BATTISTA   5", "Zona": 2, "info": "CENTRO SPORTIVO", "URL": null, "TELEFONO1": null }, "geometry": { "type": "Point", "coordinates": [ 9.2415875899389, 45.502520909603419 ] } }
,
{ "type": "Feature", "id": 225, "properties": { "FAX": null, "Nome": "SAN LEONE MAGNO", "Indirizzo": "VIA CARNIA   14", "Zona": 3, "info": "CENTRO SPORTIVO", "URL": null, "TELEFONO1": null }, "geometry": { "type": "Point", "coordinates": [ 9.236704493527233, 45.492637476585749 ] } }
,
{ "type": "Feature", "id": 226, "properties": { "FAX": null, "Nome": "ORATORIO GIOVANNI XXIII", "Indirizzo": "VIA PITTERI RICCARDO   54", "Zona": 3, "info": "CENTRO SPORTIVO", "URL": null, "TELEFONO1": null }, "geometry": { "type": "Point", "coordinates": [ 9.248244479823786, 45.474705989937604 ] } }
,
{ "type": "Feature", "id": 227, "properties": { "FAX": null, "Nome": "A.S. ALEX CLUB A-B-C-", "Indirizzo": "VIA MOTTARONE   2", "Zona": 8, "info": "FITNESS MACCHINE", "URL": null, "TELEFONO1": "0233002432" }, "geometry": { "type": "Point", "coordinates": [ 9.156840645220163, 45.494100263896513 ] } }
,
{ "type": "Feature", "id": 228, "properties": { "FAX": "02714013", "Nome": "NEW FITNESS CLUB", "Indirizzo": "VIA NULLO FRANCESCO   14", "Zona": 3, "info": "GINNASTICA", "URL": null, "TELEFONO1": "02714013" }, "geometry": { "type": "Point", "coordinates": [ 9.218430715239599, 45.469062332467921 ] } }
,
{ "type": "Feature", "id": 229, "properties": { "FAX": "0286454496", "Nome": "HISO SRL CENTRO TERAPIA FISICA RIABILITATIVA", "Indirizzo": "VIA OLMETTO   5", "Zona": 1, "info": "GINNASTICA", "URL": null, "TELEFONO1": "0286454561" }, "geometry": { "type": "Point", "coordinates": [ 9.18561752156727, 45.459817029193488 ] } }
,
{ "type": "Feature", "id": 230, "properties": { "FAX": "0226680685", "Nome": "CENTRO POLISPECIALISTICO PACINI SRL", "Indirizzo": "VIA PACINI GIOVANNI   15", "Zona": 3, "info": "GINNASTICA", "URL": null, "TELEFONO1": "022361230" }, "geometry": { "type": "Point", "coordinates": [ 9.226193173913085, 45.481359156419764 ] } }
,
{ "type": "Feature", "id": 231, "properties": { "FAX": null, "Nome": "FISIC CENTER ASSOCIAZIONE SPORTIVA DILETTANTISTICA", "Indirizzo": "VIA PANTIGLIATE   4", "Zona": 6, "info": "GINNASTICA", "URL": null, "TELEFONO1": "024158582" }, "geometry": { "type": "Point", "coordinates": [ 9.13155944892724, 45.459546868069118 ] } }
,
{ "type": "Feature", "id": 232, "properties": { "FAX": "0258103140", "Nome": "FIGURELLA MILANO SOLARI", "Indirizzo": "VLE PAPINIANO   45", "Zona": 1, "info": "FITNESS MACCHINE", "URL": null, "TELEFONO1": "0258103160" }, "geometry": { "type": "Point", "coordinates": [ 9.170552667857855, 45.457866320585552 ] } }
,
{ "type": "Feature", "id": 233, "properties": { "FAX": null, "Nome": "ENZO MONTANARI SHOTOKAN KARATE STUDIO SAS", "Indirizzo": "VIA PETRARCA FRANCESCO   8", "Zona": 1, "info": "FITNESS MACCHINE", "URL": null, "TELEFONO1": "024982764" }, "geometry": { "type": "Point", "coordinates": [ 9.169205899030395, 45.471356873061026 ] } }
,
{ "type": "Feature", "id": 234, "properties": { "FAX": "0226147471", "Nome": "AIKIDO DI FUJIMOTO YOJI", "Indirizzo": "VIA PIRANDELLO LUIGI   4", "Zona": 7, "info": "GINNASTICA", "URL": null, "TELEFONO1": "022896939" }, "geometry": { "type": "Point", "coordinates": [ 9.156474623742474, 45.463337571389673 ] } }
,
{ "type": "Feature", "id": 235, "properties": { "FAX": "0248017658", "Nome": "ICOS ASSOCIAZIONE SPORTIVA DILETTANTISTICA", "Indirizzo": "VIA PIRANDELLO LUIGI   4", "Zona": 7, "info": "GINNASTICA", "URL": null, "TELEFONO1": "02462551 _ 02462851" }, "geometry": { "type": "Point", "coordinates": [ 9.156474623742474, 45.463337571389673 ] } }
,
{ "type": "Feature", "id": 236, "properties": { "FAX": null, "Nome": "SPORTING LIFE STUDIO ALLEGRA SRL", "Indirizzo": "VIA PRINA GIUSEPPE   15", "Zona": 8, "info": "GINNASTICA", "URL": null, "TELEFONO1": "0233105530" }, "geometry": { "type": "Point", "coordinates": [ 9.168315904113928, 45.479814170130801 ] } }
,
{ "type": "Feature", "id": 237, "properties": { "FAX": "0234535169", "Nome": "GREENLINE WELLNESS CENTER SRL", "Indirizzo": "VIA PROCACCINI GIULIO CESARE   36", "Zona": 8, "info": "GINNASTICA", "URL": null, "TELEFONO1": "0293501170" }, "geometry": { "type": "Point", "coordinates": [ 9.169720615188655, 45.483225318185802 ] } }
,
{ "type": "Feature", "id": 238, "properties": { "FAX": "0258314402", "Nome": "FIGURELLA MILANO PORTA ROMANA", "Indirizzo": "VIA QUADRONNO   34", "Zona": 1, "info": "GINNASTICA", "URL": null, "TELEFONO1": "0258314343" }, "geometry": { "type": "Point", "coordinates": [ 9.195638325966124, 45.454284870711739 ] } }
,
{ "type": "Feature", "id": 239, "properties": { "FAX": null, "Nome": "ASSOCIAZIONE SPORTIVA DILETTANTISTICA FI.T.LU.", "Indirizzo": "VLE RANZONI DANIELE   21", "Zona": 7, "info": "GINNASTICA", "URL": null, "TELEFONO1": "0248700180" }, "geometry": { "type": "Point", "coordinates": [ 9.145112468531407, 45.468961900671665 ] } }
,
{ "type": "Feature", "id": 240, "properties": { "FAX": null, "Nome": "U.S. TRIESTINA 1946", "Indirizzo": "VIA FLEMING ALESSANDRO   13", "Zona": 7, "info": "CALCIO A 11", "URL": null, "TELEFONO1": "0240090479" }, "geometry": { "type": "Point", "coordinates": [ 9.120003537712833, 45.468454333539441 ] } }
,
{ "type": "Feature", "id": 241, "properties": { "FAX": null, "Nome": "U.S. QUINTO ROMANO", "Indirizzo": "VIA DE SICA VITTORIO   14", "Zona": 7, "info": "CALCIO A 11", "URL": "www.usquintoromano.it", "TELEFONO1": "0248202858" }, "geometry": { "type": "Point", "coordinates": [ 9.084242574094562, 45.477022657455841 ] } }
,
{ "type": "Feature", "id": 242, "properties": { "FAX": null, "Nome": "PARROCCHIA  S.S. NABORE E FELICE", "Indirizzo": "PLE PERRUCCHETTI GIUSEPPE   2", "Zona": 7, "info": "CALCIO A 7", "URL": null, "TELEFONO1": "0248701531" }, "geometry": { "type": "Point", "coordinates": [ 9.127974472284709, 45.465013940597068 ] } }
,
{ "type": "Feature", "id": 243, "properties": { "FAX": null, "Nome": "POLISPORTIVA AICS FIGINO", "Indirizzo": "VIA MOLINETTO   64", "Zona": 7, "info": "CENTRO SPORTIVO", "URL": null, "TELEFONO1": null }, "geometry": { "type": "Point", "coordinates": [ 9.069392396414798, 45.492160708204089 ] } }
,
{ "type": "Feature", "id": 244, "properties": { "FAX": null, "Nome": "U.S. GESCAL BOYS", "Indirizzo": "VIA OLIVIERI ALESSIO   9", "Zona": 7, "info": "CALCIO A 5", "URL": null, "TELEFONO1": "024564671" }, "geometry": { "type": "Point", "coordinates": [ 9.113522996828081, 45.464170972218639 ] } }
,
{ "type": "Feature", "id": 245, "properties": { "FAX": null, "Nome": "S.S. ALCIONE CALCIO", "Indirizzo": "VIA OLIVIERI ALESSIO   13", "Zona": 7, "info": "CENTRO SPORTIVO", "URL": "www.ssalcione.com", "TELEFONO1": "024531615" }, "geometry": { "type": "Point", "coordinates": [ 9.111425202355328, 45.465603887990866 ] } }
,
{ "type": "Feature", "id": 246, "properties": { "FAX": null, "Nome": "CIRCOLO  ARCI OLMI", "Indirizzo": "VIA DEGLI ULIVI   2", "Zona": 7, "info": "CENTRO SPORTIVO", "URL": null, "TELEFONO1": "0248911144" }, "geometry": { "type": "Point", "coordinates": [ 9.084331888157697, 45.454247409993783 ] } }
,
{ "type": "Feature", "id": 247, "properties": { "FAX": null, "Nome": "POLISPORTIVA VALSESIA", "Indirizzo": "VIA VALSESIA   20 8", "Zona": 7, "info": "CALCIO A 7", "URL": null, "TELEFONO1": null }, "geometry": { "type": "Point", "coordinates": [ 9.098863108637099, 45.455050268109744 ] } }
,
{ "type": "Feature", "id": 248, "properties": { "FAX": null, "Nome": "SELLA NUOVA S.R.L.", "Indirizzo": "VIA VITERBO   4", "Zona": 7, "info": "CENTRO SPORTIVO", "URL": null, "TELEFONO1": null }, "geometry": { "type": "Point", "coordinates": [ 9.112757464682861, 45.457235401121203 ] } }
,
{ "type": "Feature", "id": 249, "properties": { "FAX": "0234531118", "Nome": "CENTRO SPORTIVO GIOVANNI DA PROCIDA", "Indirizzo": "VIA GIOVANNI DA PROCIDA   20", "Zona": 8, "info": "CENTRO SPORTIVO", "URL": "www.milanosport.it", "TELEFONO1": "0233104970" }, "geometry": { "type": "Point", "coordinates": [ 9.160049287895289, 45.481529718210425 ] } }
,
{ "type": "Feature", "id": 250, "properties": { "FAX": "0270638558", "Nome": "GIANFRANCO CRESPI", "Indirizzo": "VIA VALVASSORI PERONI CARLO   48", "Zona": 3, "info": "CENTRO SPORTIVO", "URL": "www.milanosport.it", "TELEFONO1": "022361066" }, "geometry": { "type": "Point", "coordinates": [ 9.236821513056976, 45.47774604152464 ] } }
,
{ "type": "Feature", "id": 251, "properties": { "FAX": null, "Nome": "SOCIETA' GINNASTICA MILANESE FORZA E CORAGGIO", "Indirizzo": "VIA GALLURA   8", "Zona": 5, "info": "CENTRO SPORTIVO", "URL": "www.forzaecoraggio.com", "TELEFONO1": "0257300130" }, "geometry": { "type": "Point", "coordinates": [ 9.199191189677608, 45.437585723351219 ] } }
,
{ "type": "Feature", "id": 252, "properties": { "FAX": null, "Nome": "FOSSATI PALESTRA GIORDANI", "Indirizzo": "VIA CAMBINI LEONARDO   4", "Zona": 2, "info": "GINNASTICA ATTREZZISTICA", "URL": "www.milanosport.it", "TELEFONO1": "022820544" }, "geometry": { "type": "Point", "coordinates": [ 9.231519892133925, 45.494515141762434 ] } }
,
{ "type": "Feature", "id": 253, "properties": { "FAX": null, "Nome": "GREPPI DAJELLI", "Indirizzo": "VLE FAENZA   7", "Zona": 6, "info": "CENTRO SPORTIVO", "URL": null, "TELEFONO1": "02810202" }, "geometry": { "type": "Point", "coordinates": [ 9.151722294927689, 45.436701019527874 ] } }
,
{ "type": "Feature", "id": 254, "properties": { "FAX": null, "Nome": "VITTORIO POZZO", "Indirizzo": "VIA POZZOBONELLI GIUSEPPE   4", "Zona": 9, "info": "CENTRO SPORTIVO", "URL": null, "TELEFONO1": "026433866" }, "geometry": { "type": "Point", "coordinates": [ 9.193584783126815, 45.521592087725161 ] } }
,
{ "type": "Feature", "id": 255, "properties": { "FAX": null, "Nome": "SAN DOMENICO SAVIO", "Indirizzo": "VIA CUFRA   3", "Zona": 9, "info": "CENTRO SPORTIVO", "URL": null, "TELEFONO1": null }, "geometry": { "type": "Point", "coordinates": [ 9.194451193113595, 45.50170267344361 ] } }
,
{ "type": "Feature", "id": 256, "properties": { "FAX": null, "Nome": "SAN MATERNO", "Indirizzo": "VIA F.LLI ZANZOTTERA   19", "Zona": 7, "info": "CENTRO SPORTIVO", "URL": null, "TELEFONO1": null }, "geometry": { "type": "Point", "coordinates": [ 9.07302172827743, 45.492496830216318 ] } }
,
{ "type": "Feature", "id": 257, "properties": { "FAX": "0248915475", "Nome": "SANT'ANSELMO DA BAGGIO V.", "Indirizzo": "VIA MANARESI CESARE   13", "Zona": 7, "info": "CENTRO SPORTIVO", "URL": "www.santanselmodabaggio.it", "TELEFONO1": "0248915475" }, "geometry": { "type": "Point", "coordinates": [ 9.08841953774437, 45.465834262771516 ] } }
,
{ "type": "Feature", "id": 258, "properties": { "FAX": null, "Nome": "SAN GIOVANNI BOSCO", "Indirizzo": "VIA MAR NERO   10", "Zona": 7, "info": "CENTRO SPORTIVO", "URL": null, "TELEFONO1": null }, "geometry": { "type": "Point", "coordinates": [ 9.103416649831367, 45.457207326162987 ] } }
,
{ "type": "Feature", "id": 259, "properties": { "FAX": null, "Nome": "SANTI PATRONI D'ITALIA", "Indirizzo": "VIA ARZAGA   23", "Zona": 6, "info": "CENTRO SPORTIVO", "URL": "www.santipatroni.it", "TELEFONO1": null }, "geometry": { "type": "Point", "coordinates": [ 9.133294905982409, 45.455418049558233 ] } }
,
{ "type": "Feature", "id": 260, "properties": { "FAX": null, "Nome": "SAN BABILA SPORTCLUB", "Indirizzo": "CSO VENEZIA   2  A", "Zona": 1, "info": "GINNASTICA", "URL": null, "TELEFONO1": "0276394297" }, "geometry": { "type": "Point", "coordinates": [ 9.198126801394745, 45.467071968319331 ] } }
,
{ "type": "Feature", "id": 261, "properties": { "FAX": null, "Nome": "A.S. FREE TIME CENTER", "Indirizzo": "VIA VERRO BERNARDINO   62", "Zona": 5, "info": "GINNASTICA", "URL": null, "TELEFONO1": "0289531105" }, "geometry": { "type": "Point", "coordinates": [ 9.194085342908569, 45.436866635887057 ] } }
,
{ "type": "Feature", "id": 262, "properties": { "FAX": null, "Nome": "VICO CLUB", "Indirizzo": "VIA VICO GIAN BATTISTA   38", "Zona": 1, "info": "GINNASTICA", "URL": null, "TELEFONO1": "0234934302" }, "geometry": { "type": "Point", "coordinates": [ 9.167389493011257, 45.462437320481072 ] } }
,
{ "type": "Feature", "id": 263, "properties": { "FAX": "027383118", "Nome": "A.S.D. GYNNIC CLUB", "Indirizzo": "VIA ZANELLA GIACOMO   60", "Zona": 4, "info": "GINNASTICA", "URL": null, "TELEFONO1": "027383118" }, "geometry": { "type": "Point", "coordinates": [ 9.231416189898662, 45.464119157205651 ] } }
,
{ "type": "Feature", "id": 264, "properties": { "FAX": null, "Nome": "FOSSATI PALESTRA GIORDANI", "Indirizzo": "VIA CAMBINI LEONARDO   4", "Zona": 2, "info": "TENNIS", "URL": "www.milanosport.it", "TELEFONO1": "022820544" }, "geometry": { "type": "Point", "coordinates": [ 9.231519892133925, 45.494515141762434 ] } }
,
{ "type": "Feature", "id": 265, "properties": { "FAX": "0262345198", "Nome": "ROBERTO COZZI", "Indirizzo": "VLE TUNISIA   35", "Zona": 2, "info": "PISCINA", "URL": "www.milanosport.it", "TELEFONO1": "026599703" }, "geometry": { "type": "Point", "coordinates": [ 9.201282289864418, 45.479039845858665 ] } }
,
{ "type": "Feature", "id": 266, "properties": { "FAX": null, "Nome": "ACCADEMIA DELLE ARTI MARZIALI", "Indirizzo": "VIA ARIBERTO DA INTIMIANO   3", "Zona": 1, "info": "FITNESS MACCHINE", "URL": null, "TELEFONO1": "0289404524" }, "geometry": { "type": "Point", "coordinates": [ 9.174894527220184, 45.457538368088279 ] } }
,
{ "type": "Feature", "id": 267, "properties": { "FAX": "024045694", "Nome": "CASA DEI BAMBINI MONTESSORI", "Indirizzo": "VIA AROSIO   3", "Zona": 7, "info": "FITNESS MACCHINE", "URL": null, "TELEFONO1": "024045694_024043493" }, "geometry": { "type": "Point", "coordinates": [ 9.125304326510436, 45.47361026040528 ] } }
,
{ "type": "Feature", "id": 268, "properties": { "FAX": "026460485", "Nome": "HOCKEY CLUB MILANO 24 SRL", "Indirizzo": "VIA ASSIETTA   19", "Zona": 9, "info": "FITNESS MACCHINE", "URL": "www.hcm24.it", "TELEFONO1": "026621611" }, "geometry": { "type": "Point", "coordinates": [ 9.163398243128279, 45.518087910898679 ] } }
,
{ "type": "Feature", "id": 269, "properties": { "FAX": "022871566", "Nome": "PALESTRA LEONARDO", "Indirizzo": "VIA BATTAGLIA NATALE   6", "Zona": 2, "info": "GINNASTICA", "URL": null, "TELEFONO1": "022892869" }, "geometry": { "type": "Point", "coordinates": [ 9.216130432683737, 45.488149559790628 ] } }
,
{ "type": "Feature", "id": 270, "properties": { "FAX": null, "Nome": "ASSOCIAZIONE SPORTIVA CLUB 43", "Indirizzo": "VIA BORDIGHERA   43", "Zona": 5, "info": "GINNASTICA", "URL": null, "TELEFONO1": "0289512737" }, "geometry": { "type": "Point", "coordinates": [ 9.173775941651929, 45.438950153799283 ] } }
,
{ "type": "Feature", "id": 271, "properties": { "FAX": "02878780", "Nome": "SANTOMASOSEI LA PALESTRA", "Indirizzo": "VIA BROLETTO   28", "Zona": 1, "info": "GINNASTICA", "URL": null, "TELEFONO1": "02878780_ 02876902" }, "geometry": { "type": "Point", "coordinates": [ 9.185794723124479, 45.467530753850347 ] } }
,
{ "type": "Feature", "id": 272, "properties": { "FAX": null, "Nome": "PALESTRA MOVE AP", "Indirizzo": "VIA BULLONA   12", "Zona": 8, "info": "GINNASTICA", "URL": null, "TELEFONO1": "0234592536" }, "geometry": { "type": "Point", "coordinates": [ 9.161801898313948, 45.48640846487956 ] } }
,
{ "type": "Feature", "id": 273, "properties": { "FAX": "0287381261", "Nome": "PILATES CESARE DA SESTO 24", "Indirizzo": "VIA CESARE DA SESTO   24", "Zona": 1, "info": "GINNASTICA", "URL": null, "TELEFONO1": "0287381261" }, "geometry": { "type": "Point", "coordinates": [ 9.171295793371415, 45.458761047493944 ] } }
,
{ "type": "Feature", "id": 274, "properties": { "FAX": null, "Nome": "QUICK & SLOW - CENTRO DANZA", "Indirizzo": "VIA CAPECELATRO ALFONSO   22", "Zona": 7, "info": "GINNASTICA", "URL": null, "TELEFONO1": "0240070046" }, "geometry": { "type": "Point", "coordinates": [ 9.132229087158679, 45.469564000140309 ] } }
,
{ "type": "Feature", "id": 275, "properties": { "FAX": null, "Nome": "VICO CENISIO", "Indirizzo": "VIA CENISIO   10  A", "Zona": 8, "info": "FITNESS MACCHINE", "URL": null, "TELEFONO1": "0234934302" }, "geometry": { "type": "Point", "coordinates": [ 9.170391767628804, 45.487684680103783 ] } }
,
{ "type": "Feature", "id": 276, "properties": { "FAX": "024980506", "Nome": "PALESTRA SPORTIME SIMONETTA MORO", "Indirizzo": "VIA CIMAROSA DOMENICO   7", "Zona": 7, "info": "GINNASTICA", "URL": null, "TELEFONO1": "024818028" }, "geometry": { "type": "Point", "coordinates": [ 9.159181857581885, 45.465650116776217 ] } }
,
{ "type": "Feature", "id": 277, "properties": { "FAX": "026599765", "Nome": "CLUB FRANCESCO CONTI", "Indirizzo": "CSO COMO   15", "Zona": 9, "info": "GINNASTICA", "URL": null, "TELEFONO1": "026570294" }, "geometry": { "type": "Point", "coordinates": [ 9.187212554688781, 45.482620537122678 ] } }
,
{ "type": "Feature", "id": 278, "properties": { "FAX": null, "Nome": "HARMONIEDUCORPS STUDIO", "Indirizzo": "VLE CONI ZUGNA   8", "Zona": 7, "info": "GINNASTICA", "URL": null, "TELEFONO1": "0248198496" }, "geometry": { "type": "Point", "coordinates": [ 9.164733834023965, 45.460056477269966 ] } }
,
{ "type": "Feature", "id": 279, "properties": { "FAX": null, "Nome": "DYNAMIKA PALESTRA", "Indirizzo": "VIA CUCCHIARI DOMENICO   4", "Zona": 8, "info": "GINNASTICA", "URL": null, "TELEFONO1": "02317504" }, "geometry": { "type": "Point", "coordinates": [ 9.164650372681205, 45.488146633832947 ] } }
,
{ "type": "Feature", "id": 280, "properties": { "FAX": null, "Nome": "ARMONIA PENSIERO IN MOVIMENTO", "Indirizzo": "VIA CUSANI   1", "Zona": 1, "info": "GINNASTICA", "URL": null, "TELEFONO1": "0286462927" }, "geometry": { "type": "Point", "coordinates": [ 9.184975193780767, 45.468674067469365 ] } }
,
{ "type": "Feature", "id": 281, "properties": { "FAX": "024694574", "Nome": "FIGURELLA MILANO FRUA", "Indirizzo": "PZA DE ANGELI ERNESTO   7", "Zona": 7, "info": "GINNASTICA", "URL": null, "TELEFONO1": "024694061" }, "geometry": { "type": "Point", "coordinates": [ 9.149021700538958, 45.466228904789112 ] } }
,
{ "type": "Feature", "id": 282, "properties": { "FAX": null, "Nome": "CORPO Y LAMA", "Indirizzo": "VIA EUSTACHI BARTOLOMEO   22", "Zona": 3, "info": "GINNASTICA", "URL": null, "TELEFONO1": "0289057116" }, "geometry": { "type": "Point", "coordinates": [ 9.215195768825829, 45.475825773353527 ] } }
,
{ "type": "Feature", "id": 283, "properties": { "FAX": "0289057116", "Nome": "ACTIVITY SRL", "Indirizzo": "VIA EUSTACHI BARTOLOMEO   22", "Zona": 3, "info": "GINNASTICA", "URL": null, "TELEFONO1": "0289057116" }, "geometry": { "type": "Point", "coordinates": [ 9.215195768825829, 45.475825773353527 ] } }
,
{ "type": "Feature", "id": 284, "properties": { "FAX": null, "Nome": "ANDREW'S QUARE", "Indirizzo": "VIA FRIULI   50", "Zona": 4, "info": "GINNASTICA", "URL": null, "TELEFONO1": "0255196033" }, "geometry": { "type": "Point", "coordinates": [ 9.213824076592534, 45.454727440121545 ] } }
,
{ "type": "Feature", "id": 285, "properties": { "FAX": "0254121130", "Nome": "PLUS 1 GYM CONCEPT", "Indirizzo": "VIA FRIULI   8", "Zona": 4, "info": "GINNASTICA", "URL": null, "TELEFONO1": "0254121130" }, "geometry": { "type": "Point", "coordinates": [ 9.209184710419565, 45.449048321184812 ] } }
,
{ "type": "Feature", "id": 286, "properties": { "FAX": null, "Nome": "A.S. NEW GYMNIKA", "Indirizzo": "VIA RUCELLAI BERNARDO   20", "Zona": 2, "info": "GINNASTICA", "URL": null, "TELEFONO1": "022579400" }, "geometry": { "type": "Point", "coordinates": [ 9.22071659060261, 45.512250035672203 ] } }
,
{ "type": "Feature", "id": 287, "properties": { "FAX": null, "Nome": "FIGURELLA MILANO SAN BABILA", "Indirizzo": "PZA SAN BABILA   5", "Zona": 1, "info": "GINNASTICA", "URL": null, "TELEFONO1": "0276002567" }, "geometry": { "type": "Point", "coordinates": [ 9.197524229793759, 45.467041479549415 ] } }
,
{ "type": "Feature", "id": 288, "properties": { "FAX": "0258301519", "Nome": "OLISTICA SALUS", "Indirizzo": "VIA SAN MARTINO   14", "Zona": 1, "info": "GINNASTICA", "URL": null, "TELEFONO1": "0258300910" }, "geometry": { "type": "Point", "coordinates": [ 9.189423999008238, 45.453089475589081 ] } }
,
{ "type": "Feature", "id": 289, "properties": { "FAX": "0272003980", "Nome": "FIGURELLA MILANO", "Indirizzo": "VIA SAN PROSPERO   4", "Zona": 1, "info": "GINNASTICA", "URL": null, "TELEFONO1": "0272003960" }, "geometry": { "type": "Point", "coordinates": [ 9.18571709769456, 45.466089825775654 ] } }
,
{ "type": "Feature", "id": 290, "properties": { "FAX": null, "Nome": "BICOCCA VILLAGE", "Indirizzo": "VLE SARCA   336", "Zona": 9, "info": "GINNASTICA", "URL": null, "TELEFONO1": "0266101276" }, "geometry": { "type": "Point", "coordinates": [ 9.214196067879209, 45.524949232055761 ] } }
,
{ "type": "Feature", "id": 291, "properties": { "FAX": "0287389823", "Nome": "HUMANKINESIS RIABILITAZIONE INTEGRATA", "Indirizzo": "VLE SARCA   336", "Zona": 9, "info": "GINNASTICA", "URL": null, "TELEFONO1": "0287389820" }, "geometry": { "type": "Point", "coordinates": [ 9.214196067879209, 45.524949232055761 ] } }
,
{ "type": "Feature", "id": 292, "properties": { "FAX": null, "Nome": "ASSOCIAZIONE HARA YOGA ASS", "Indirizzo": "VIA SAVONA   10", "Zona": 6, "info": "GINNASTICA", "URL": null, "TELEFONO1": "0289422500" }, "geometry": { "type": "Point", "coordinates": [ 9.168568219678305, 45.455603484114711 ] } }
,
{ "type": "Feature", "id": 293, "properties": { "FAX": "02782087", "Nome": "ANGELO CAROLI", "Indirizzo": "VIA SENATO   11", "Zona": 1, "info": "GINNASTICA", "URL": null, "TELEFONO1": "0276028517" }, "geometry": { "type": "Point", "coordinates": [ 9.197868956104207, 45.469918571780674 ] } }
,
{ "type": "Feature", "id": 294, "properties": { "FAX": null, "Nome": "CENTRI SHIATSU SHIN WA", "Indirizzo": "VIA SETTEMBRINI LUIGI   52", "Zona": 3, "info": "GINNASTICA", "URL": null, "TELEFONO1": "0229404540" }, "geometry": { "type": "Point", "coordinates": [ 9.208547451462422, 45.484052720053597 ] } }
,
{ "type": "Feature", "id": 295, "properties": { "FAX": null, "Nome": "WELLNESS", "Indirizzo": "VIA TAGLIAMENTO   19", "Zona": 4, "info": "GINNASTICA", "URL": null, "TELEFONO1": "025691181" }, "geometry": { "type": "Point", "coordinates": [ 9.213527317330476, 45.443536146832912 ] } }
,
{ "type": "Feature", "id": 296, "properties": { "FAX": "0236514463", "Nome": "IL VASO DI PANDORA", "Indirizzo": "VIA TARTINI GIUSEPPE   38", "Zona": 9, "info": "GINNASTICA", "URL": null, "TELEFONO1": "0236514463" }, "geometry": { "type": "Point", "coordinates": [ 9.174574233199513, 45.50660449283739 ] } }
,
{ "type": "Feature", "id": 297, "properties": { "FAX": null, "Nome": "PALESTRA FIT HARMONY", "Indirizzo": "VIA CINQUE MAGGIO   11", "Zona": 8, "info": "GINNASTICA", "URL": null, "TELEFONO1": "0297377525" }, "geometry": { "type": "Point", "coordinates": [ 9.132636652320434, 45.509748539759855 ] } }
,
{ "type": "Feature", "id": 298, "properties": { "FAX": "02876452", "Nome": "PALESTRA VERTICAL FIT", "Indirizzo": "VIA MERAVIGLI   12", "Zona": 1, "info": "GINNASTICA", "URL": null, "TELEFONO1": "02876452" }, "geometry": { "type": "Point", "coordinates": [ 9.18280952809757, 45.465841209809959 ] } }
,
{ "type": "Feature", "id": 299, "properties": { "FAX": null, "Nome": "IMMACOLATA CONCEZIONE", "Indirizzo": "PZA FRATTINI PIETRO   1", "Zona": 6, "info": "CENTRO SPORTIVO", "URL": null, "TELEFONO1": null }, "geometry": { "type": "Point", "coordinates": [ 9.143407129629075, 45.451902005874508 ] } }
,
{ "type": "Feature", "id": 300, "properties": { "FAX": null, "Nome": "SAN GIUSEPPE CALASANZIO", "Indirizzo": "VIA GNOCCHI DON CARLO   16", "Zona": 7, "info": "CENTRO SPORTIVO", "URL": null, "TELEFONO1": null }, "geometry": { "type": "Point", "coordinates": [ 9.124687175506679, 45.472263779967221 ] } }
,
{ "type": "Feature", "id": 301, "properties": { "FAX": null, "Nome": "CONVENTO DEI CAPUCCINI", "Indirizzo": "PLE VELASQUEZ DIEGO   1", "Zona": 7, "info": "CENTRO SPORTIVO", "URL": null, "TELEFONO1": null }, "geometry": { "type": "Point", "coordinates": [ 9.141049484995197, 45.467228008651986 ] } }
,
{ "type": "Feature", "id": 302, "properties": { "FAX": null, "Nome": "SANTI MARTIRI ANAUNIESI", "Indirizzo": "VIA BETTI UGO   62", "Zona": 8, "info": "CENTRO SPORTIVO", "URL": null, "TELEFONO1": null }, "geometry": { "type": "Point", "coordinates": [ 9.109344461529338, 45.494661921432801 ] } }
,
{ "type": "Feature", "id": 303, "properties": { "FAX": null, "Nome": "SAN LEONARDO DA PORTO MAURIZIO", "Indirizzo": "VIA BORSA MARIO   50", "Zona": 8, "info": "CENTRO SPORTIVO", "URL": null, "TELEFONO1": null }, "geometry": { "type": "Point", "coordinates": [ 9.097101231510861, 45.504250175337418 ] } }
,
{ "type": "Feature", "id": 304, "properties": { "FAX": null, "Nome": "MARIA ASSUNTA IN CERTOSA", "Indirizzo": "VIA PARETO VILFREDO   2", "Zona": 8, "info": "CENTRO SPORTIVO", "URL": null, "TELEFONO1": null }, "geometry": { "type": "Point", "coordinates": [ 9.128348737689558, 45.502550356395716 ] } }
,
{ "type": "Feature", "id": 305, "properties": { "FAX": null, "Nome": "SANTI MM. NAZARO E CELSO", "Indirizzo": "VIA ALDINI ANTONIO   33", "Zona": 8, "info": "CENTRO SPORTIVO", "URL": "www.nazaroecelso.it", "TELEFONO1": null }, "geometry": { "type": "Point", "coordinates": [ 9.135353726229107, 45.512445195001284 ] } }
,
{ "type": "Feature", "id": 306, "properties": { "FAX": null, "Nome": "SAN GAETANO", "Indirizzo": "VIA MAC MAHON   92", "Zona": 8, "info": "CENTRO SPORTIVO", "URL": null, "TELEFONO1": null }, "geometry": { "type": "Point", "coordinates": [ 9.158291903498725, 45.493844546824413 ] } }
,
{ "type": "Feature", "id": 307, "properties": { "FAX": null, "Nome": "A.S.D. RUGBY MILANO", "Indirizzo": "VIA LICATA   41", "Zona": 3, "info": "CALCIO A 11", "URL": null, "TELEFONO1": null }, "geometry": { "type": "Point", "coordinates": [ 9.251111781759043, 45.498681575827632 ] } }
,
{ "type": "Feature", "id": 308, "properties": { "FAX": null, "Nome": "COOPERATIVA DRIMS", "Indirizzo": "VIA MECENATE   74", "Zona": 4, "info": "TENNIS TAVOLO", "URL": null, "TELEFONO1": "025061277" }, "geometry": { "type": "Point", "coordinates": [ 9.246586992138516, 45.453694319121858 ] } }
,
{ "type": "Feature", "id": 309, "properties": { "FAX": null, "Nome": "G.S. FROGMONTEGANI LA ROSSA", "Indirizzo": "VIA NOCE TERESA   5", "Zona": 5, "info": "CALCIO A 5", "URL": "www.informacalcio.it\/qsfrogmontegani.larossa", "TELEFONO1": "028266730" }, "geometry": { "type": "Point", "coordinates": [ 9.170724515298652, 45.416744986212805 ] } }
,
{ "type": "Feature", "id": 310, "properties": { "FAX": null, "Nome": "U.S. GESCAL BOYS", "Indirizzo": "VIA OLIVIERI ALESSIO   9", "Zona": 7, "info": "CENTRO SPORTIVO", "URL": null, "TELEFONO1": "024564671" }, "geometry": { "type": "Point", "coordinates": [ 9.113522996828081, 45.464170972218639 ] } }
,
{ "type": "Feature", "id": 311, "properties": { "FAX": "0239262162", "Nome": "XXV APRILE", "Indirizzo": "VIA CIMABUE GIOVANNI   24", "Zona": 8, "info": "TENNIS", "URL": "www.milanosport.it", "TELEFONO1": "0239262162" }, "geometry": { "type": "Point", "coordinates": [ 9.138502959568923, 45.488744309923803 ] } }
,
{ "type": "Feature", "id": 312, "properties": { "FAX": null, "Nome": "DONATO PAVESI - PALESTRA CARLO GALIMBERTI", "Indirizzo": "VIA DE LEMENE FRANCESCO   3", "Zona": 8, "info": "CENTRO SPORTIVO", "URL": null, "TELEFONO1": "0239215190" }, "geometry": { "type": "Point", "coordinates": [ 9.139257781806613, 45.493943062287613 ] } }
,
{ "type": "Feature", "id": 313, "properties": { "FAX": null, "Nome": "G.S. AFFORESE", "Indirizzo": "VIA ASSIETTA   48", "Zona": 9, "info": "CENTRO SPORTIVO", "URL": null, "TELEFONO1": null }, "geometry": { "type": "Point", "coordinates": [ 9.15723693341644, 45.516934707735381 ] } }
,
{ "type": "Feature", "id": 314, "properties": { "FAX": null, "Nome": "A.S.I. - ALLEANZA SPORTIVA ITALIANA", "Indirizzo": "VIA PASTA GIUDITTA   41", "Zona": 9, "info": "CALCIO A 11", "URL": null, "TELEFONO1": null }, "geometry": { "type": "Point", "coordinates": [ 9.180805752989445, 45.520335210137091 ] } }
,
{ "type": "Feature", "id": 315, "properties": { "FAX": null, "Nome": "NIGUARDA CALCIO A.S.D.", "Indirizzo": "VIA CESARI ANTONIO   38", "Zona": 9, "info": "CENTRO SPORTIVO", "URL": null, "TELEFONO1": null }, "geometry": { "type": "Point", "coordinates": [ 9.186902526312698, 45.519641164339987 ] } }
,
{ "type": "Feature", "id": 316, "properties": { "FAX": null, "Nome": "CAMPO LIBERO PLE ACCURSIO FRANCESCO", "Indirizzo": "PLE ACCURSIO FRANCESCO", "Zona": 8, "info": "PALLACANESTRO", "URL": null, "TELEFONO1": null }, "geometry": { "type": "Point", "coordinates": [ 9.146444893346267, 45.492854287047386 ] } }
,
{ "type": "Feature", "id": 317, "properties": { "FAX": null, "Nome": "CAMPO LIBERO VLE ARGONNE", "Indirizzo": "VLE ARGONNE", "Zona": 4, "info": "PALLACANESTRO", "URL": null, "TELEFONO1": null }, "geometry": { "type": "Point", "coordinates": [ 9.227191347658222, 45.468106858954044 ] } }
,
{ "type": "Feature", "id": 318, "properties": { "FAX": null, "Nome": "CAMPO LIBERO PZA ASPROMONTE", "Indirizzo": "PZA ASPROMONTE", "Zona": 3, "info": "PALLACANESTRO", "URL": null, "TELEFONO1": null }, "geometry": { "type": "Point", "coordinates": [ 9.220214949952291, 45.483936112650561 ] } }
,
{ "type": "Feature", "id": 319, "properties": { "FAX": null, "Nome": "CAMPO LIBERO VIA BISCEGLIE  SNC", "Indirizzo": "VIA BISCEGLIE  SNC", "Zona": 6, "info": "PALLACANESTRO", "URL": null, "TELEFONO1": null }, "geometry": { "type": "Point", "coordinates": [ 9.12218568149229, 45.447008254560764 ] } }
,
{ "type": "Feature", "id": 320, "properties": { "FAX": null, "Nome": "CAMPO LIBERO VIA CROCE BENEDETTO", "Indirizzo": "VIA CROCE BENEDETTO", "Zona": 8, "info": "PALLACANESTRO", "URL": null, "TELEFONO1": null }, "geometry": { "type": "Point", "coordinates": [ 9.11763668272622, 45.49455678294926 ] } }
,
{ "type": "Feature", "id": 321, "properties": { "FAX": null, "Nome": "CAMPO LIBERO VLE CA' GRANDA", "Indirizzo": "VLE CA' GRANDA", "Zona": 9, "info": "PALLACANESTRO", "URL": null, "TELEFONO1": null }, "geometry": { "type": "Point", "coordinates": [ 9.191389432237882, 45.508189283297433 ] } }
,
{ "type": "Feature", "id": 322, "properties": { "FAX": null, "Nome": "CAMPO LIBERO VIA CALABRIA DON GIOVANNI", "Indirizzo": "VIA CALABRIA DON GIOVANNI", "Zona": 3, "info": "PALLACANESTRO", "URL": null, "TELEFONO1": null }, "geometry": { "type": "Point", "coordinates": [ 9.243369730438385, 45.500998110276768 ] } }
,
{ "type": "Feature", "id": 323, "properties": { "FAX": null, "Nome": "CAMPO LIBERO VIA DEZZA GIUSEPPE", "Indirizzo": "VIA DEZZA GIUSEPPE", "Zona": 7, "info": "PALLACANESTRO", "URL": null, "TELEFONO1": null }, "geometry": { "type": "Point", "coordinates": [ 9.160211145651488, 45.461013712423579 ] } }
,
{ "type": "Feature", "id": 324, "properties": { "FAX": null, "Nome": "CAMPO LIBERO PLE FARINA SALVATORE", "Indirizzo": "PLE FARINA SALVATORE", "Zona": 2, "info": "PALLACANESTRO", "URL": null, "TELEFONO1": null }, "geometry": { "type": "Point", "coordinates": [ 9.200148083110255, 45.498709498277769 ] } }
,
{ "type": "Feature", "id": 325, "properties": { "FAX": null, "Nome": "MARIA REGINA PACIS", "Indirizzo": "VIA KANT EMANUELE   8", "Zona": 8, "info": "PALLACANESTRO", "URL": null, "TELEFONO1": null },